no,name,심평원 평가,학회 인증,address,phone,region,type,dialysis_machines,has_dialysis_unit,night_dialysis,dialysis_days,naver_map_url,kakao_map_url,lat,lng,coord_source,updated_at,hira_grade,ksn_certified,ksn_cert_date,specialist_count,specialists,nephrology_doctor,is_dialysis_specialist
1,(의)열린의료재단 예인의원,O,#N/A (),"서울특별시 강서구 양천로 366, 5,6층 (가양동, 미라클빌딩)",02-3661-7582,서울,병원/의원,35,1,0,,https://map.naver.com/v5/search/%28%EC%9D%98%29%EC%97%B4%EB%A6%B0%EC%9D%98%EB%A3%8C%EC%9E%AC%EB%8B%A8%20%EC%98%88%EC%9D%B8%EC%9D%98%EC%9B%90,https://map.kakao.com/?q=%28%EC%9D%98%29%EC%97%B4%EB%A6%B0%EC%9D%98%EB%A3%8C%EC%9E%AC%EB%8B%A8%20%EC%98%88%EC%9D%B8%EC%9D%98%EC%9B%90,37.5672569,126.8429031,Naver Map Search,2026-05-27 17:18:10,1등급,인증,2026-02-16,2,"김화정,김수민","김화정,김수민",1
2,(의)영문의료재단 다보스병원,O,#N/A (),"경기도 용인시 처인구 백옥대로1082번길 18, 다보스종합병원 (김량장동)",031-8021-2114,경기,병원/의원,38,1,0,,https://map.naver.com/v5/search/%28%EC%9D%98%29%EC%98%81%EB%AC%B8%EC%9D%98%EB%A3%8C%EC%9E%AC%EB%8B%A8%20%EB%8B%A4%EB%B3%B4%EC%8A%A4%EB%B3%91%EC%9B%90,https://map.kakao.com/?q=%28%EC%9D%98%29%EC%98%81%EB%AC%B8%EC%9D%98%EB%A3%8C%EC%9E%AC%EB%8B%A8%20%EB%8B%A4%EB%B3%B4%EC%8A%A4%EB%B3%91%EC%9B%90,37.2314882,127.2114647,Naver Map Search,2026-05-27 17:18:10,1등급,미인증,2025-10-30,2,"배성창,김대규","배성창,김대규",1
3,가톨릭관동대학교 국제성모병원,O,#N/A (),"인천광역시 서구 심곡로100번길 25-0, 인천국제성모병원",032-1600-8291,인천,병원/의원,57,1,0,,https://map.naver.com/v5/search/%EA%B0%80%ED%86%A8%EB%A6%AD%EA%B4%80%EB%8F%99%EB%8C%80%ED%95%99%EA%B5%90%20%EA%B5%AD%EC%A0%9C%EC%84%B1%EB%AA%A8%EB%B3%91%EC%9B%90,https://map.kakao.com/?q=%EA%B0%80%ED%86%A8%EB%A6%AD%EA%B4%80%EB%8F%99%EB%8C%80%ED%95%99%EA%B5%90%20%EA%B5%AD%EC%A0%9C%EC%84%B1%EB%AA%A8%EB%B3%91%EC%9B%90,37.5424164,126.6836102,Naver Map Search,2026-05-27 17:18:10,1등급,미인증,,0,,,0
4,가톨릭대학교 성빈센트병원,O,O,"경기도 수원시 팔달구 중부대로 93, (지동)",031-1577-8588,경기,병원/의원,77,1,0,,https://map.naver.com/v5/search/%EA%B0%80%ED%86%A8%EB%A6%AD%EB%8C%80%ED%95%99%EA%B5%90%20%EC%84%B1%EB%B9%88%EC%84%BC%ED%8A%B8%EB%B3%91%EC%9B%90,https://map.kakao.com/?q=%EA%B0%80%ED%86%A8%EB%A6%AD%EB%8C%80%ED%95%99%EA%B5%90%20%EC%84%B1%EB%B9%88%EC%84%BC%ED%8A%B8%EB%B3%91%EC%9B%90,37.2779855,127.0274271,Naver Map Search,2026-05-27 17:18:10,1등급,인증,2025-07-23,2,"김형욱,김형래","김형욱,김용균,김형래",1
5,가톨릭대학교 은평성모병원,O,X,"서울특별시 은평구 통일로 1021, (진관동)",02-1811-7755,서울,병원/의원,35,1,0,,https://map.naver.com/v5/search/%EA%B0%80%ED%86%A8%EB%A6%AD%EB%8C%80%ED%95%99%EA%B5%90%20%EC%9D%80%ED%8F%89%EC%84%B1%EB%AA%A8%EB%B3%91%EC%9B%90,https://map.kakao.com/?q=%EA%B0%80%ED%86%A8%EB%A6%AD%EB%8C%80%ED%95%99%EA%B5%90%20%EC%9D%80%ED%8F%89%EC%84%B1%EB%AA%A8%EB%B3%91%EC%9B%90,37.6334945,126.9161912,Naver Map Search,2026-05-27 17:18:10,1등급,미인증,2026-03-25,2,"반태현,김형덕","반태현,김병수,최범순,김형덕,김성미",1
6,가톨릭대학교부천성모병원,O,#N/A (),"경기도 부천시 원미구 소사로 327, 가톨릭대학교 부천성모병원 (소사동)",032-1577-0675,경기,병원/의원,29,1,0,,https://map.naver.com/v5/search/%EA%B0%80%ED%86%A8%EB%A6%AD%EB%8C%80%ED%95%99%EA%B5%90%EB%B6%80%EC%B2%9C%EC%84%B1%EB%AA%A8%EB%B3%91%EC%9B%90,https://map.kakao.com/?q=%EA%B0%80%ED%86%A8%EB%A6%AD%EB%8C%80%ED%95%99%EA%B5%90%EB%B6%80%EC%B2%9C%EC%84%B1%EB%AA%A8%EB%B3%91%EC%9B%90,37.4871165,126.7924167,Naver Map Search,2026-05-27 17:18:10,1등급,인증,2026-03-28,4,"민지원,고은정,강동혁,윤소정","민지원,고은정,강동혁,윤소정",1
7,가톨릭대학교인천성모병원,O,#N/A (),"인천광역시 부평구 동수로 56, (부평동)",032-1544-9004,인천,병원/의원,61,1,0,,https://map.naver.com/v5/search/%EA%B0%80%ED%86%A8%EB%A6%AD%EB%8C%80%ED%95%99%EA%B5%90%EC%9D%B8%EC%B2%9C%EC%84%B1%EB%AA%A8%EB%B3%91%EC%9B%90,https://map.kakao.com/?q=%EA%B0%80%ED%86%A8%EB%A6%AD%EB%8C%80%ED%95%99%EA%B5%90%EC%9D%B8%EC%B2%9C%EC%84%B1%EB%AA%A8%EB%B3%91%EC%9B%90,37.4848309,126.7248987,Naver Map Search,2026-05-27 17:18:10,1등급,인증,2026-01-29,5,"신석준,음상훈,나도현,채승윤,류세영","신석준,음상훈,나도현,채승윤,류세영",1
8,강동경희대학교병원,O,O,"서울특별시 강동구 동남로 892, (상일동)",02-440-7114,서울,병원/의원,44,1,0,,https://map.naver.com/v5/search/%EA%B0%95%EB%8F%99%EA%B2%BD%ED%9D%AC%EB%8C%80%ED%95%99%EA%B5%90%EB%B3%91%EC%9B%90,https://map.kakao.com/?q=%EA%B0%95%EB%8F%99%EA%B2%BD%ED%9D%AC%EB%8C%80%ED%95%99%EA%B5%90%EB%B3%91%EC%9B%90,#N/A (),#N/A (),Naver Map Search,2026-05-27 17:18:10,1등급,인증,2025-10-13,3,"문주영,김양균,정수웅","이상호,문주영,김양균,정수웅",1
9,강릉아산병원,O,#N/A (),"강원특별자치도 강릉시 사천면 방동길 38-0, 강릉아산병원",033-610-3114,강원,병원/의원,53,1,0,,https://map.naver.com/v5/search/%EA%B0%95%EB%A6%89%EC%95%84%EC%82%B0%EB%B3%91%EC%9B%90,https://map.kakao.com/?q=%EA%B0%95%EB%A6%89%EC%95%84%EC%82%B0%EB%B3%91%EC%9B%90,37.8184325,128.8578411,Naver Map Search,2026-05-27 17:18:10,1등급,미인증,,0,,,0
10,강북삼성병원,O,#N/A (),"서울특별시 종로구 새문안로 29, (평동)",02-2001-2001,서울,병원/의원,34,1,0,,https://map.naver.com/v5/search/%EA%B0%95%EB%B6%81%EC%82%BC%EC%84%B1%EB%B3%91%EC%9B%90,https://map.kakao.com/?q=%EA%B0%95%EB%B6%81%EC%82%BC%EC%84%B1%EB%B3%91%EC%9B%90,37.5684083,126.96775,Naver Map Search,2026-05-27 17:18:10,1등급,인증,2026-02-23,3,"현영율,이규백,양지현","현영율,이규백,양지현,김유정,이주영",1
11,강원대학교병원,O,O,"강원특별자치도 춘천시 백령로 156, (효자동)",033-258-2000,강원,병원/의원,54,1,0,,https://map.naver.com/v5/search/%EA%B0%95%EC%9B%90%EB%8C%80%ED%95%99%EA%B5%90%EB%B3%91%EC%9B%90,https://map.kakao.com/?q=%EA%B0%95%EC%9B%90%EB%8C%80%ED%95%99%EA%B5%90%EB%B3%91%EC%9B%90,37.8751611,127.7448909,Naver Map Search,2026-05-27 17:18:10,1등급,인증,2026-01-09,4,"백현정,박지인,이선화,손성민","정해혁,백현정,박지인,이선화,손성민",1
12,건국대학교병원,O,O,"서울특별시 광진구 능동로 120-1, (화양동)",1588-1533,서울,병원/의원,41,1,0,,https://map.naver.com/v5/search/%EA%B1%B4%EA%B5%AD%EB%8C%80%ED%95%99%EA%B5%90%EB%B3%91%EC%9B%90,https://map.kakao.com/?q=%EA%B1%B4%EA%B5%AD%EB%8C%80%ED%95%99%EA%B5%90%EB%B3%91%EC%9B%90,37.5403764,127.0718276,Naver Map Search,2026-05-27 17:18:10,1등급,인증,2026-03-23,5,"조영일,조아진,이지영,김경원,장유경","조영일,조아진,이지영,김경원,장유경",1
13,경북대학교병원,O,O,"대구광역시 중구 동덕로 130, (삼덕동2가, 경북대학교병원)",053-200-5114,대구,병원/의원,54,1,0,,https://map.naver.com/v5/search/%EA%B2%BD%EB%B6%81%EB%8C%80%ED%95%99%EA%B5%90%EB%B3%91%EC%9B%90,https://map.kakao.com/?q=%EA%B2%BD%EB%B6%81%EB%8C%80%ED%95%99%EA%B5%90%EB%B3%91%EC%9B%90,35.8662525,128.604703,Naver Map Search,2026-05-27 17:18:10,1등급,인증,2025-12-01,7,"김찬덕,조장희,정희연,배호상,전유현,조민현,박민지","박선희,김찬덕,조장희,정희연,배호상,전유현,조민현,박민지",1
14,경상국립대학교병원,O,#N/A (),"경상남도 진주시 강남로 79, (칠암동)",055-750-8000,경남,병원/의원,50,1,0,,https://map.naver.com/v5/search/%EA%B2%BD%EC%83%81%EA%B5%AD%EB%A6%BD%EB%8C%80%ED%95%99%EA%B5%90%EB%B3%91%EC%9B%90,https://map.kakao.com/?q=%EA%B2%BD%EC%83%81%EA%B5%AD%EB%A6%BD%EB%8C%80%ED%95%99%EA%B5%90%EB%B3%91%EC%9B%90,35.1759944,128.0964924,Naver Map Search,2026-05-27 17:18:10,1등급,인증,2026-02-24,5,"장세호,김현정,이승혜,전혜진,장하니","장세호,김현정,이승혜,정세현,전혜진,장하니",1
15,경찰병원,O,O,"서울특별시 송파구 송이로 123, 국립경찰병원 (가락동)",02-3400-1114,서울,병원/의원,49,1,0,,https://map.naver.com/v5/search/%EA%B2%BD%EC%B0%B0%EB%B3%91%EC%9B%90,https://map.kakao.com/?q=%EA%B2%BD%EC%B0%B0%EB%B3%91%EC%9B%90,37.4963836,127.1235089,Naver Map Search,2026-05-27 17:18:10,1등급,인증,2026-01-02,2,"이세한,박지현","이세한,박지현",1
16,경희대학교병원,O,O,"서울특별시 동대문구 경희대로 23, (회기동)",02-958-8114,서울,병원/의원,47,1,0,,https://map.naver.com/v5/search/%EA%B2%BD%ED%9D%AC%EB%8C%80%ED%95%99%EA%B5%90%EB%B3%91%EC%9B%90,https://map.kakao.com/?q=%EA%B2%BD%ED%9D%AC%EB%8C%80%ED%95%99%EA%B5%90%EB%B3%91%EC%9B%90,37.5941195,127.051852,Naver Map Search,2026-05-27 17:18:10,1등급,인증,2026-01-09,4,"정경환,황현석,김진숙,윤수영","정경환,황현석,김진숙,윤수영,김현규,이정연",1
17,계명대학교동산병원,O,#N/A (),"대구광역시 달서구 달구벌대로 1035, (신당동)",1577-6622,대구,병원/의원,92,1,0,,https://map.naver.com/v5/search/%EA%B3%84%EB%AA%85%EB%8C%80%ED%95%99%EA%B5%90%EB%8F%99%EC%82%B0%EB%B3%91%EC%9B%90,https://map.kakao.com/?q=%EA%B3%84%EB%AA%85%EB%8C%80%ED%95%99%EA%B5%90%EB%8F%99%EC%82%B0%EB%B3%91%EC%9B%90,35.8538856,128.4801315,Naver Map Search,2026-05-27 17:18:10,1등급,미인증,,0,,,0
18,고려대학교의과대학부속구로병원,O,#N/A (),"서울특별시 구로구 구로동로 148, 고려대부속구로병원 (구로동)",02-2626-1114,서울,병원/의원,57,1,0,,https://map.naver.com/v5/search/%EA%B3%A0%EB%A0%A4%EB%8C%80%ED%95%99%EA%B5%90%EC%9D%98%EA%B3%BC%EB%8C%80%ED%95%99%EB%B6%80%EC%86%8D%EA%B5%AC%EB%A1%9C%EB%B3%91%EC%9B%90,https://map.kakao.com/?q=%EA%B3%A0%EB%A0%A4%EB%8C%80%ED%95%99%EA%B5%90%EC%9D%98%EA%B3%BC%EB%8C%80%ED%95%99%EB%B6%80%EC%86%8D%EA%B5%AC%EB%A1%9C%EB%B3%91%EC%9B%90,37.492052,126.8848701,Naver Map Search,2026-05-27 17:18:10,1등급,미인증,,0,,,0
19,고려대학교의과대학부속안산병원,O,#N/A (),"경기도 안산시 단원구 적금로 123, (고잔동)",031-1577-7516,경기,병원/의원,41,1,0,,https://map.naver.com/v5/search/%EA%B3%A0%EB%A0%A4%EB%8C%80%ED%95%99%EA%B5%90%EC%9D%98%EA%B3%BC%EB%8C%80%ED%95%99%EB%B6%80%EC%86%8D%EC%95%88%EC%82%B0%EB%B3%91%EC%9B%90,https://map.kakao.com/?q=%EA%B3%A0%EB%A0%A4%EB%8C%80%ED%95%99%EA%B5%90%EC%9D%98%EA%B3%BC%EB%8C%80%ED%95%99%EB%B6%80%EC%86%8D%EC%95%88%EC%82%B0%EB%B3%91%EC%9B%90,37.3185144,126.8249033,Naver Map Search,2026-05-27 17:18:10,1등급,미인증,,0,,,0
20,고신대학교복음병원,O,#N/A (),"부산광역시 서구 감천로 262, (암남동)",990-6114,부산,병원/의원,50,1,0,,https://map.naver.com/v5/search/%EA%B3%A0%EC%8B%A0%EB%8C%80%ED%95%99%EA%B5%90%EB%B3%B5%EC%9D%8C%EB%B3%91%EC%9B%90,https://map.kakao.com/?q=%EA%B3%A0%EC%8B%A0%EB%8C%80%ED%95%99%EA%B5%90%EB%B3%B5%EC%9D%8C%EB%B3%91%EC%9B%90,35.0809636,129.0139595,Naver Map Search,2026-05-27 17:18:10,1등급,인증,2026-04-01,4,"임학,정연순,신호식,김예나","임학,정연순,신호식,김예나",1
21,광주일곡병원,O,#N/A (),"광주광역시 북구 양일로 309,  (일곡동)",062-608-7000,광주,병원/의원,17,1,0,,https://map.naver.com/v5/search/%EA%B4%91%EC%A3%BC%EC%9D%BC%EA%B3%A1%EB%B3%91%EC%9B%90,https://map.kakao.com/?q=%EA%B4%91%EC%A3%BC%EC%9D%BC%EA%B3%A1%EB%B3%91%EC%9B%90,35.2028543,126.8976135,Naver Map Search,2026-05-27 17:18:10,1등급,미인증,,0,,,0
22,구로성심병원,O,O,"서울특별시 구로구 경인로 427, 구로성심병원 (고척동)",02-2067-1500,서울,병원/의원,43,1,0,,https://map.naver.com/v5/search/%EA%B5%AC%EB%A1%9C%EC%84%B1%EC%8B%AC%EB%B3%91%EC%9B%90,https://map.kakao.com/?q=%EA%B5%AC%EB%A1%9C%EC%84%B1%EC%8B%AC%EB%B3%91%EC%9B%90,37.4996715,126.8664159,Naver Map Search,2026-05-27 17:18:10,1등급,인증,2026-03-18,0,,이승언,0
23,국민건강보험공단일산병원,O,#N/A (),"경기도 고양시 일산동구 일산로 100, (백석동,백석1동 1241외1필지 4층)",1577-0013,경기,병원/의원,162,1,0,,https://map.naver.com/v5/search/%EA%B5%AD%EB%AF%BC%EA%B1%B4%EA%B0%95%EB%B3%B4%ED%97%98%EA%B3%B5%EB%8B%A8%EC%9D%BC%EC%82%B0%EB%B3%91%EC%9B%90,https://map.kakao.com/?q=%EA%B5%AD%EB%AF%BC%EA%B1%B4%EA%B0%95%EB%B3%B4%ED%97%98%EA%B3%B5%EB%8B%A8%EC%9D%BC%EC%82%B0%EB%B3%91%EC%9B%90,37.6454754,126.7930401,Naver Map Search,2026-05-27 17:18:10,1등급,인증,2026-01-15,4,"장태익,김재영,이용규,박경숙","장태익,김재영,이용규,박경숙",1
24,단국대학교의과대학부속병원,O,#N/A (),"충청남도 천안시 동남구 망향로 201,  (안서동)",041-1588-0063,충남,병원/의원,43,1,0,,https://map.naver.com/v5/search/%EB%8B%A8%EA%B5%AD%EB%8C%80%ED%95%99%EA%B5%90%EC%9D%98%EA%B3%BC%EB%8C%80%ED%95%99%EB%B6%80%EC%86%8D%EB%B3%91%EC%9B%90,https://map.kakao.com/?q=%EB%8B%A8%EA%B5%AD%EB%8C%80%ED%95%99%EA%B5%90%EC%9D%98%EA%B3%BC%EB%8C%80%ED%95%99%EB%B6%80%EC%86%8D%EB%B3%91%EC%9B%90,36.8415904,127.172575,Naver Map Search,2026-05-27 17:18:10,1등급,미인증,,0,,,0
25,대구가톨릭대학교병원,O,X,"대구광역시 남구 두류공원로17길 33, (대명동)",053-650-3000,대구,병원/의원,94,1,0,,https://map.naver.com/v5/search/%EB%8C%80%EA%B5%AC%EA%B0%80%ED%86%A8%EB%A6%AD%EB%8C%80%ED%95%99%EA%B5%90%EB%B3%91%EC%9B%90,https://map.kakao.com/?q=%EB%8C%80%EA%B5%AC%EA%B0%80%ED%86%A8%EB%A6%AD%EB%8C%80%ED%95%99%EA%B5%90%EB%B3%91%EC%9B%90,35.8436078,128.5679969,Naver Map Search,2026-05-27 17:18:10,1등급,미인증,2026-03-13,3,"이인희,조성,김성규","이인희,조성,김성규",1
26,대명앰알씨티의원,O,#N/A (),"서울특별시 영등포구 양평로 99, 지하1,2-5층 (양평동4가)",02-2633-0007,서울,병원/의원,,1,0,,https://map.naver.com/v5/search/%EB%8C%80%EB%AA%85%EC%95%B0%EC%95%8C%EC%94%A8%ED%8B%B0%EC%9D%98%EC%9B%90,https://map.kakao.com/?q=%EB%8C%80%EB%AA%85%EC%95%B0%EC%95%8C%EC%94%A8%ED%8B%B0%EC%9D%98%EC%9B%90,#N/A (),#N/A (),Naver Map Search,2026-05-27 17:18:10,1등급,미인증,,0,,,0
27,대전보훈병원,O,X,"대전광역시 대덕구 대청로82번길 147, 147",042-939-0111,대전,병원/의원,19,1,0,,https://map.naver.com/v5/search/%EB%8C%80%EC%A0%84%EB%B3%B4%ED%9B%88%EB%B3%91%EC%9B%90,https://map.kakao.com/?q=%EB%8C%80%EC%A0%84%EB%B3%B4%ED%9B%88%EB%B3%91%EC%9B%90,36.4473355,127.4396417,Naver Map Search,2026-05-27 17:18:10,1등급,미인증,2026-05-26,3,"정지윤,이종인,박미란","정지윤,이종인,박미란",1
28,대진의료재단 분당제생병원,O,#N/A (),"경기도 성남시 분당구 서현로180번길 20, (서현동)",031-779-0114,경기,병원/의원,65,1,0,,https://map.naver.com/v5/search/%EB%8C%80%EC%A7%84%EC%9D%98%EB%A3%8C%EC%9E%AC%EB%8B%A8%20%EB%B6%84%EB%8B%B9%EC%A0%9C%EC%83%9D%EB%B3%91%EC%9B%90,https://map.kakao.com/?q=%EB%8C%80%EC%A7%84%EC%9D%98%EB%A3%8C%EC%9E%AC%EB%8B%A8%20%EB%B6%84%EB%8B%B9%EC%A0%9C%EC%83%9D%EB%B3%91%EC%9B%90,37.3882035,127.1217783,Naver Map Search,2026-05-27 17:18:10,1등급,인증,2026-01-15,2,"정윤철,이승찬","정윤철,이장한,최용선,이승찬,김수근",1
29,독산내과의원,O,#N/A (),"서울특별시 금천구 남부순환로 1372, (독산동)",02-855-3482,서울,병원/의원,19,1,0,,https://map.naver.com/v5/search/%EB%8F%85%EC%82%B0%EB%82%B4%EA%B3%BC%EC%9D%98%EC%9B%90,https://map.kakao.com/?q=%EB%8F%85%EC%82%B0%EB%82%B4%EA%B3%BC%EC%9D%98%EC%9B%90,37.4794589,126.9034727,Naver Map Search,2026-05-27 17:18:10,1등급,인증,2026-03-26,1,한상우,한상우,1
30,동국대학교일산불교병원,O,#N/A (),"경기도 고양시 일산동구 동국로 27, (식사동, 동국대학교일산병원)",031-1577-7000,경기,병원/의원,35,1,0,,https://map.naver.com/v5/search/%EB%8F%99%EA%B5%AD%EB%8C%80%ED%95%99%EA%B5%90%EC%9D%BC%EC%82%B0%EB%B6%88%EA%B5%90%EB%B3%91%EC%9B%90,https://map.kakao.com/?q=%EB%8F%99%EA%B5%AD%EB%8C%80%ED%95%99%EA%B5%90%EC%9D%BC%EC%82%B0%EB%B6%88%EA%B5%90%EB%B3%91%EC%9B%90,37.6763969,126.8064233,Naver Map Search,2026-05-27 17:18:10,1등급,인증,2025-06-25,3,"이장욱,장예진,정윤아","신성준,박재윤,이장욱,송정인,장예진,정윤아",1
31,동아대학교병원,O,X,"부산광역시 서구 대신공원로 26, (동대신동3가)",051-240-2400,부산,병원/의원,47,1,0,,https://map.naver.com/v5/search/%EB%8F%99%EC%95%84%EB%8C%80%ED%95%99%EA%B5%90%EB%B3%91%EC%9B%90,https://map.kakao.com/?q=%EB%8F%99%EC%95%84%EB%8C%80%ED%95%99%EA%B5%90%EB%B3%91%EC%9B%90,35.1201682,129.0175391,Naver Map Search,2026-05-27 17:18:10,1등급,미인증,2026-03-06,5,"김성은,안원석,이수미,양동은,이혜정","김성은,안원석,이수미,양동은,이혜정,김진경",1
32,동탄서울내과의원,O,X,"경기도 화성시 동탄구 동탄순환대로 127-5, 우성센트럴타워 309~314호, 501~511호 (산척동)",031-831-8363,경기,병원/의원,42,1,0,,https://map.naver.com/v5/search/%EB%8F%99%ED%83%84%EC%84%9C%EC%9A%B8%EB%82%B4%EA%B3%BC%EC%9D%98%EC%9B%90,https://map.kakao.com/?q=%EB%8F%99%ED%83%84%EC%84%9C%EC%9A%B8%EB%82%B4%EA%B3%BC%EC%9D%98%EC%9B%90,37.1660595,127.1072823,Naver Map Search,2026-05-27 17:18:10,1등급,미인증,2025-06-02,2,"조성근,김진경","조성근,김진경",1
33,바로준내과의원,O,X,"경기도 수원시 팔달구 중부대로 110, 한라시그마팰리스 107, 217, 307호 (인계동)",031-221-1341,경기,병원/의원,47,1,0,,https://map.naver.com/v5/search/%EB%B0%94%EB%A1%9C%EC%A4%80%EB%82%B4%EA%B3%BC%EC%9D%98%EC%9B%90,https://map.kakao.com/?q=%EB%B0%94%EB%A1%9C%EC%A4%80%EB%82%B4%EA%B3%BC%EC%9D%98%EC%9B%90,37.2774567,127.0288321,Naver Map Search,2026-05-27 17:18:10,1등급,미인증,2025-12-10,2,"황성준,오지은","황성준,오지은",1
34,부민병원,O,#N/A (),"서울특별시 강서구 공항대로 389, 부민병원 (등촌동)",1577-7582,서울,병원/의원,34,1,0,,https://map.naver.com/v5/search/%EB%B6%80%EB%AF%BC%EB%B3%91%EC%9B%90,https://map.kakao.com/?q=%EB%B6%80%EB%AF%BC%EB%B3%91%EC%9B%90,37.556866,126.8509273,Naver Map Search,2026-05-27 17:18:10,1등급,미인증,2026-03-23,1,김혜인,김혜인,1
35,부산대학교병원,O,O,"부산광역시 서구 구덕로 179, (아미동1가)",240-7000,부산,병원/의원,57,1,0,,https://map.naver.com/v5/search/%EB%B6%80%EC%82%B0%EB%8C%80%ED%95%99%EA%B5%90%EB%B3%91%EC%9B%90,https://map.kakao.com/?q=%EB%B6%80%EC%82%B0%EB%8C%80%ED%95%99%EA%B5%90%EB%B3%91%EC%9B%90,35.1008477,129.0188032,Naver Map Search,2026-05-27 17:18:10,1등급,인증,2025-10-30,5,"송상헌,성은영,이하린,김효진,김다운","송상헌,성은영,이하린,김효진,김다운",1
36,분당서울대학교병원,O,#N/A (),"경기도 성남시 분당구 구미로173번길 82, (구미동, 분당서울대학교병원)",031-787-2114,경기,병원/의원,55,1,0,,https://map.naver.com/v5/search/%EB%B6%84%EB%8B%B9%EC%84%9C%EC%9A%B8%EB%8C%80%ED%95%99%EA%B5%90%EB%B3%91%EC%9B%90,https://map.kakao.com/?q=%EB%B6%84%EB%8B%B9%EC%84%9C%EC%9A%B8%EB%8C%80%ED%95%99%EA%B5%90%EB%B3%91%EC%9B%90,37.3519807,127.1232509,Naver Map Search,2026-05-27 17:18:10,1등급,인증,2026-03-30,3,"진호준,김세중,권은정","나기영,진호준,김세중,정종철,박석우,권은정",1
37,삼성서울병원,O,#N/A (),"서울특별시 강남구 일원로 81, (일원동, 삼성의료원)",02-3410-2114,서울,병원/의원,65,1,0,,https://map.naver.com/v5/search/%EC%82%BC%EC%84%B1%EC%84%9C%EC%9A%B8%EB%B3%91%EC%9B%90,https://map.kakao.com/?q=%EC%82%BC%EC%84%B1%EC%84%9C%EC%9A%B8%EB%B3%91%EC%9B%90,37.4882977,127.0851508,Naver Map Search,2026-05-27 17:18:10,1등급,미인증,2026-02-02,5,"장혜련,김윤구,허우성,송승민,김민형","장혜련,김윤구,허우성,송승민,김민형",1
38,새본내과의원,O,X,"서울특별시 강서구 등촌로 183, 2층 (등촌동, 세스빌딩)",02-2649-0875,서울,병원/의원,20,1,0,,https://map.naver.com/v5/search/%EC%83%88%EB%B3%B8%EB%82%B4%EA%B3%BC%EC%9D%98%EC%9B%90,https://map.kakao.com/?q=%EC%83%88%EB%B3%B8%EB%82%B4%EA%B3%BC%EC%9D%98%EC%9B%90,37.5462518,126.862271,Naver Map Search,2026-05-27 17:18:10,1등급,미인증,2026-01-21,1,황규남,황규남,1
39,서울대학교병원,O,O,"서울특별시 종로구 대학로 101, (연건동)",1588-5700,서울,병원/의원,91,1,0,,https://map.naver.com/v5/search/%EC%84%9C%EC%9A%B8%EB%8C%80%ED%95%99%EA%B5%90%EB%B3%91%EC%9B%90,https://map.kakao.com/?q=%EC%84%9C%EC%9A%B8%EB%8C%80%ED%95%99%EA%B5%90%EB%B3%91%EC%9B%90,37.5797151,126.9990168,Naver Map Search,2026-05-27 17:18:10,1등급,인증,2026-02-23,6,"김연수,주권욱,오국환,김동기,이하정,윤동환","김연수,주권욱,오국환,김동기,이하정,한승석,윤동환",1
40,서울본내과의원,O,O,"서울특별시 마포구 양화로 133, 서교타워 3,5,18층 (서교동)",02-3143-2220,서울,병원/의원,32,1,0,,https://map.naver.com/v5/search/%EC%84%9C%EC%9A%B8%EB%B3%B8%EB%82%B4%EA%B3%BC%EC%9D%98%EC%9B%90,https://map.kakao.com/?q=%EC%84%9C%EC%9A%B8%EB%B3%B8%EB%82%B4%EA%B3%BC%EC%9D%98%EC%9B%90,37.5552513,126.9209815,Naver Map Search,2026-05-27 17:18:10,1등급,인증,2025-05-28,3,"김혜원,오정선,조우리","김혜원,오정선,조우리",1
41,서울성심병원,O,O,"서울특별시 동대문구 왕산로 259, 서울성심병원 (청량리동)",02-966-1616,서울,병원/의원,16,1,0,,https://map.naver.com/v5/search/%EC%84%9C%EC%9A%B8%EC%84%B1%EC%8B%AC%EB%B3%91%EC%9B%90,https://map.kakao.com/?q=%EC%84%9C%EC%9A%B8%EC%84%B1%EC%8B%AC%EB%B3%91%EC%9B%90,37.5843076,127.0497296,Naver Map Search,2026-05-27 17:18:10,1등급,인증,2026-02-23,1,장효정,장효정,1
42,서울특별시보라매병원,O,#N/A (),"서울특별시 동작구 보라매로5길 20, (신대방동)",02-870-2114,서울,병원/의원,70,1,0,,https://map.naver.com/v5/search/%EC%84%9C%EC%9A%B8%ED%8A%B9%EB%B3%84%EC%8B%9C%EB%B3%B4%EB%9D%BC%EB%A7%A4%EB%B3%91%EC%9B%90,https://map.kakao.com/?q=%EC%84%9C%EC%9A%B8%ED%8A%B9%EB%B3%84%EC%8B%9C%EB%B3%B4%EB%9D%BC%EB%A7%A4%EB%B3%91%EC%9B%90,37.4934414,126.9239058,Naver Map Search,2026-05-27 17:18:10,1등급,인증,2026-03-17,4,"임춘수,오윤규,이정표,이정환","임춘수,오윤규,이정표,이정환",1
43,서울특별시서울의료원,O,#N/A (),"서울특별시 중랑구 신내로 156, (신내동)",02-2276-7000,서울,병원/의원,60,1,0,,https://map.naver.com/v5/search/%EC%84%9C%EC%9A%B8%ED%8A%B9%EB%B3%84%EC%8B%9C%EC%84%9C%EC%9A%B8%EC%9D%98%EB%A3%8C%EC%9B%90,https://map.kakao.com/?q=%EC%84%9C%EC%9A%B8%ED%8A%B9%EB%B3%84%EC%8B%9C%EC%84%9C%EC%9A%B8%EC%9D%98%EB%A3%8C%EC%9B%90,37.6132762,127.0978309,Naver Map Search,2026-05-27 17:18:10,1등급,인증,2026-03-30,2,"강나리,백나나","강나리,백나나,김현규",1
44,성남요양병원,O,O,"경기도 성남시 중원구 광명로 299, 행림빌딩 지하1층,3~8층 (금광동)",031-731-8899,경기,병원/의원,19,1,0,,https://map.naver.com/v5/search/%EC%84%B1%EB%82%A8%EC%9A%94%EC%96%91%EB%B3%91%EC%9B%90,https://map.kakao.com/?q=%EC%84%B1%EB%82%A8%EC%9A%94%EC%96%91%EB%B3%91%EC%9B%90,37.4446663,127.159374,Naver Map Search,2026-05-27 17:18:10,1등급,인증,2026-01-13,0,,한아림,0
45,성모혜민내과의원,O,X,"경기도 부천시 원미구 길주로 221, 씨티오피스 203호일부, 502호, 503호 (중동)",032-322-0875,경기,병원/의원,41,1,0,,https://map.naver.com/v5/search/%EC%84%B1%EB%AA%A8%ED%98%9C%EB%AF%BC%EB%82%B4%EA%B3%BC%EC%9D%98%EC%9B%90,https://map.kakao.com/?q=%EC%84%B1%EB%AA%A8%ED%98%9C%EB%AF%BC%EB%82%B4%EA%B3%BC%EC%9D%98%EC%9B%90,37.5047137,126.7672502,Naver Map Search,2026-05-27 17:18:10,1등급,미인증,2026-05-27,2,"이하늘,최다솔","이하늘,최다솔",1
46,성심의료재단강동성심병원,O,#N/A (),"서울특별시 강동구 성안로 150, (길동)",02-2224-2114,서울,병원/의원,45,1,0,,https://map.naver.com/v5/search/%EC%84%B1%EC%8B%AC%EC%9D%98%EB%A3%8C%EC%9E%AC%EB%8B%A8%EA%B0%95%EB%8F%99%EC%84%B1%EC%8B%AC%EB%B3%91%EC%9B%90,https://map.kakao.com/?q=%EC%84%B1%EC%8B%AC%EC%9D%98%EB%A3%8C%EC%9E%AC%EB%8B%A8%EA%B0%95%EB%8F%99%EC%84%B1%EC%8B%AC%EB%B3%91%EC%9B%90,37.5359971,127.135378,Naver Map Search,2026-05-27 17:18:10,1등급,미인증,,0,,,0
47,세종충남대학교병원,O,X,"세종특별자치시 보듬7로 20, 세종충남대학교병원 (도담동)",1800-3114,세종,병원/의원,31,1,0,,https://map.naver.com/v5/search/%EC%84%B8%EC%A2%85%EC%B6%A9%EB%82%A8%EB%8C%80%ED%95%99%EA%B5%90%EB%B3%91%EC%9B%90,https://map.kakao.com/?q=%EC%84%B8%EC%A2%85%EC%B6%A9%EB%82%A8%EB%8C%80%ED%95%99%EA%B5%90%EB%B3%91%EC%9B%90,36.5195133,127.2579427,Naver Map Search,2026-05-27 17:18:10,1등급,미인증,2026-02-17,3,"김해리,박희원,이소영","김해리,박희원,이소영",1
48,순천향대학교 부속 구미병원,O,#N/A (),"경상북도 구미시 1공단로 179,  (공단동)",054-468-9114,경북,병원/의원,32,1,0,,https://map.naver.com/v5/search/%EC%88%9C%EC%B2%9C%ED%96%A5%EB%8C%80%ED%95%99%EA%B5%90%20%EB%B6%80%EC%86%8D%20%EA%B5%AC%EB%AF%B8%EB%B3%91%EC%9B%90,https://map.kakao.com/?q=%EC%88%9C%EC%B2%9C%ED%96%A5%EB%8C%80%ED%95%99%EA%B5%90%20%EB%B6%80%EC%86%8D%20%EA%B5%AC%EB%AF%B8%EB%B3%91%EC%9B%90,36.1029182,128.3827377,Naver Map Search,2026-05-27 17:18:10,1등급,미인증,2026-02-13,2,"정선영,박구태","정선영,황성조,박구태",1
49,순천향대학교 부속 서울병원,O,#N/A (),"서울특별시 용산구 대사관로 59, (한남동)",02-709-9114,서울,병원/의원,52,1,0,,https://map.naver.com/v5/search/%EC%88%9C%EC%B2%9C%ED%96%A5%EB%8C%80%ED%95%99%EA%B5%90%20%EB%B6%80%EC%86%8D%20%EC%84%9C%EC%9A%B8%EB%B3%91%EC%9B%90,https://map.kakao.com/?q=%EC%88%9C%EC%B2%9C%ED%96%A5%EB%8C%80%ED%95%99%EA%B5%90%20%EB%B6%80%EC%86%8D%20%EC%84%9C%EC%9A%B8%EB%B3%91%EC%9B%90,37.533804,127.0042579,Naver Map Search,2026-05-27 17:18:10,1등급,인증,2026-03-06,7,"이현진,노현진,전진석,권순효,이해경,김형래,김민정","이현진,노현진,전진석,권순효,이해경,김형래,김민정",1
50,순천향대학교부속 천안병원,O,#N/A (),"충청남도 천안시 동남구 순천향6길 31,  5동 (봉명동,순천향대학교병원)",041-570-2114,충남,병원/의원,45,1,0,,https://map.naver.com/v5/search/%EC%88%9C%EC%B2%9C%ED%96%A5%EB%8C%80%ED%95%99%EA%B5%90%EB%B6%80%EC%86%8D%20%EC%B2%9C%EC%95%88%EB%B3%91%EC%9B%90,https://map.kakao.com/?q=%EC%88%9C%EC%B2%9C%ED%96%A5%EB%8C%80%ED%95%99%EA%B5%90%EB%B6%80%EC%86%8D%20%EC%B2%9C%EC%95%88%EB%B3%91%EC%9B%90,36.8027381,127.1358588,Naver Map Search,2026-05-27 17:18:10,1등급,인증,2026-03-31,8,"이은영,길효욱,박삼엘,조남준,김무준,김동섭,이동진,최보미","이은영,길효욱,박삼엘,조남준,김무준,김동섭,이동진,최보미",1
51,순천향대학교부속부천병원,O,#N/A (),"경기도 부천시 원미구 조마루로 170, 부흥로 173(1층일부) (중동)",032-621-5114,경기,병원/의원,60,1,0,,https://map.naver.com/v5/search/%EC%88%9C%EC%B2%9C%ED%96%A5%EB%8C%80%ED%95%99%EA%B5%90%EB%B6%80%EC%86%8D%EB%B6%80%EC%B2%9C%EB%B3%91%EC%9B%90,https://map.kakao.com/?q=%EC%88%9C%EC%B2%9C%ED%96%A5%EB%8C%80%ED%95%99%EA%B5%90%EB%B6%80%EC%86%8D%EB%B6%80%EC%B2%9C%EB%B3%91%EC%9B%90,37.4986998,126.7629626,Naver Map Search,2026-05-27 17:18:10,1등급,인증,2026-03-31,8,"이은영,길효욱,박삼엘,조남준,김무준,김동섭,이동진,최보미","이은영,길효욱,박삼엘,조남준,김무준,김동섭,이동진,최보미",1
52,시원항병원,O,#N/A (),"부산광역시 북구 금곡대로 27, 더청명빌딩 5~10층 (덕천동)",331-7275,부산,병원/의원,,1,0,,https://map.naver.com/v5/search/%EC%8B%9C%EC%9B%90%ED%95%AD%EB%B3%91%EC%9B%90,https://map.kakao.com/?q=%EC%8B%9C%EC%9B%90%ED%95%AD%EB%B3%91%EC%9B%90,#N/A (),#N/A (),Naver Map Search,2026-05-27 17:18:10,1등급,미인증,,0,,,0
53,아산진내과의원,O,O,"서울특별시 영등포구 당산로 223, 4층 (당산동5가)",02-2633-3900,서울,병원/의원,22,1,0,,https://map.naver.com/v5/search/%EC%95%84%EC%82%B0%EC%A7%84%EB%82%B4%EA%B3%BC%EC%9D%98%EC%9B%90,https://map.kakao.com/?q=%EC%95%84%EC%82%B0%EC%A7%84%EB%82%B4%EA%B3%BC%EC%9D%98%EC%9B%90,37.5337276,126.9011686,Naver Map Search,2026-05-27 17:18:10,1등급,인증,2026-03-13,2,"박태진,정현연","박태진,정현연",1
54,아주대학교병원,O,O,"경기도 수원시 영통구 월드컵로 164, (원천동)",031-219-5114,경기,병원/의원,76,1,0,,https://map.naver.com/v5/search/%EC%95%84%EC%A3%BC%EB%8C%80%ED%95%99%EA%B5%90%EB%B3%91%EC%9B%90,https://map.kakao.com/?q=%EC%95%84%EC%A3%BC%EB%8C%80%ED%95%99%EA%B5%90%EB%B3%91%EC%9B%90,37.2794612,127.0476837,Naver Map Search,2026-05-27 17:18:10,1등급,인증,2026-03-14,6,"김흥수,신규태,박인휘,이민정,최희정,현선아","김흥수,신규태,박인휘,이민정,최희정,강은정,김은진,현선아",1
55,안정경내과의원,O,#N/A (),"인천광역시 부평구 부평대로 24, 4,5층 (부평동)",032-514-9086,인천,병원/의원,28,1,0,,https://map.naver.com/v5/search/%EC%95%88%EC%A0%95%EA%B2%BD%EB%82%B4%EA%B3%BC%EC%9D%98%EC%9B%90,https://map.kakao.com/?q=%EC%95%88%EC%A0%95%EA%B2%BD%EB%82%B4%EA%B3%BC%EC%9D%98%EC%9B%90,37.4935676,126.7233183,Naver Map Search,2026-05-27 17:18:10,1등급,미인증,,0,,,0
56,양산부산대학교병원,O,O,"경상남도 양산시 물금읍 금오로 20, (물금읍)",055-360-1000,경남,병원/의원,41,1,0,,https://map.naver.com/v5/search/%EC%96%91%EC%82%B0%EB%B6%80%EC%82%B0%EB%8C%80%ED%95%99%EA%B5%90%EB%B3%91%EC%9B%90,https://map.kakao.com/?q=%EC%96%91%EC%82%B0%EB%B6%80%EC%82%B0%EB%8C%80%ED%95%99%EA%B5%90%EB%B3%91%EC%9B%90,35.3281501,129.0057274,Naver Map Search,2026-05-27 17:18:10,1등급,인증,2026-03-26,2,"김서린,예병민","김서린,예병민,이수봉,이동원,김일영",1
57,연세대학교 원주세브란스기독병원,O,O,"강원특별자치도 원주시 일산로 20-0,  (일산동)",033-741-0114,강원,병원/의원,78,1,0,,https://map.naver.com/v5/search/%EC%97%B0%EC%84%B8%EB%8C%80%ED%95%99%EA%B5%90%20%EC%9B%90%EC%A3%BC%EC%84%B8%EB%B8%8C%EB%9E%80%EC%8A%A4%EA%B8%B0%EB%8F%85%EB%B3%91%EC%9B%90,https://map.kakao.com/?q=%EC%97%B0%EC%84%B8%EB%8C%80%ED%95%99%EA%B5%90%20%EC%9B%90%EC%A3%BC%EC%84%B8%EB%B8%8C%EB%9E%80%EC%8A%A4%EA%B8%B0%EB%8F%85%EB%B3%91%EC%9B%90,37.3490013,127.9456639,Naver Map Search,2026-05-27 17:18:10,1등급,인증,2026-01-08,5,"최승옥,한병근,양재원,김재석,이준영","최승옥,한병근,양재원,남궁미경,김재석,이준영,신동희",1
58,연세대학교 의과대학 용인세브란스병원,O,#N/A (),"경기도 용인시 기흥구 동백죽전대로 363, (중동)",1899-1004,경기,병원/의원,57,1,0,,https://map.naver.com/v5/search/%EC%97%B0%EC%84%B8%EB%8C%80%ED%95%99%EA%B5%90%20%EC%9D%98%EA%B3%BC%EB%8C%80%ED%95%99%20%EC%9A%A9%EC%9D%B8%EC%84%B8%EB%B8%8C%EB%9E%80%EC%8A%A4%EB%B3%91%EC%9B%90,https://map.kakao.com/?q=%EC%97%B0%EC%84%B8%EB%8C%80%ED%95%99%EA%B5%90%20%EC%9D%98%EA%B3%BC%EB%8C%80%ED%95%99%20%EC%9A%A9%EC%9D%B8%EC%84%B8%EB%B8%8C%EB%9E%80%EC%8A%A4%EB%B3%91%EC%9B%90,37.270805,127.1485144,Naver Map Search,2026-05-27 17:18:10,1등급,인증,2026-03-26,4,"윤해룡,주영수,이정은,고예은","윤해룡,주영수,이정은,고예은",1
59,연세대학교의과대학 강남세브란스병원,O,#N/A (),"서울특별시 강남구 언주로 211, 강남세브란스병원 (도곡동)",02-2019-3114,서울,병원/의원,38,1,0,,https://map.naver.com/v5/search/%EC%97%B0%EC%84%B8%EB%8C%80%ED%95%99%EA%B5%90%EC%9D%98%EA%B3%BC%EB%8C%80%ED%95%99%20%EA%B0%95%EB%82%A8%EC%84%B8%EB%B8%8C%EB%9E%80%EC%8A%A4%EB%B3%91%EC%9B%90,https://map.kakao.com/?q=%EC%97%B0%EC%84%B8%EB%8C%80%ED%95%99%EA%B5%90%EC%9D%98%EA%B3%BC%EB%8C%80%ED%95%99%20%EA%B0%95%EB%82%A8%EC%84%B8%EB%B8%8C%EB%9E%80%EC%8A%A4%EB%B3%91%EC%9B%90,37.4929296,127.0462683,Naver Map Search,2026-05-27 17:18:10,1등급,인증,2026-04-06,4,"박형천,최훈영,지종현,배우람","박형천,최훈영,지종현,배우람,김성근",1
60,연세대학교의과대학세브란스병원,O,#N/A (),"서울특별시 서대문구 연세로 50-1, (신촌동)",02-2228-0114,서울,병원/의원,89,1,0,,https://map.naver.com/v5/search/%EC%97%B0%EC%84%B8%EB%8C%80%ED%95%99%EA%B5%90%EC%9D%98%EA%B3%BC%EB%8C%80%ED%95%99%EC%84%B8%EB%B8%8C%EB%9E%80%EC%8A%A4%EB%B3%91%EC%9B%90,https://map.kakao.com/?q=%EC%97%B0%EC%84%B8%EB%8C%80%ED%95%99%EA%B5%90%EC%9D%98%EA%B3%BC%EB%8C%80%ED%95%99%EC%84%B8%EB%B8%8C%EB%9E%80%EC%8A%A4%EB%B3%91%EC%9B%90,37.5623446,126.9408265,Naver Map Search,2026-05-27 17:18:10,1등급,미인증,,0,,,0
61,연세선내과의원,O,O,"경기도 고양시 덕양구 화중로 76, 303,305,306호 (화정동, 대감빌딩)",031-970-7585,경기,병원/의원,20,1,0,,https://map.naver.com/v5/search/%EC%97%B0%EC%84%B8%EC%84%A0%EB%82%B4%EA%B3%BC%EC%9D%98%EC%9B%90,https://map.kakao.com/?q=%EC%97%B0%EC%84%B8%EC%84%A0%EB%82%B4%EA%B3%BC%EC%9D%98%EC%9B%90,37.3717541,126.9357508,Naver Map Search,2026-05-27 17:18:10,1등급,인증,2026-01-28,1,박선영,박선영,1
62,염문선내과의원,O,O,"서울특별시 마포구 마포대로24길 56, 3층, 4층 (아현동, 보령빌딩)",02-392-0077,서울,병원/의원,20,1,0,,https://map.naver.com/v5/search/%EC%97%BC%EB%AC%B8%EC%84%A0%EB%82%B4%EA%B3%BC%EC%9D%98%EC%9B%90,https://map.kakao.com/?q=%EC%97%BC%EB%AC%B8%EC%84%A0%EB%82%B4%EA%B3%BC%EC%9D%98%EC%9B%90,37.551547,126.961928,Naver Map Search,2026-05-27 17:18:10,1등급,인증,2026-03-31,1,강민혜,강민혜,1
63,영남대학교병원,O,O,"대구광역시 남구 현충로 170, (대명동)",053-623-8001,대구,병원/의원,71,1,0,,https://map.naver.com/v5/search/%EC%98%81%EB%82%A8%EB%8C%80%ED%95%99%EA%B5%90%EB%B3%91%EC%9B%90,https://map.kakao.com/?q=%EC%98%81%EB%82%A8%EB%8C%80%ED%95%99%EA%B5%90%EB%B3%91%EC%9B%90,35.848107,128.58205,Naver Map Search,2026-05-27 17:18:10,1등급,인증,2026-05-26,6,"도준영,박종원,조규향,강석휘,김아영,허찬영","도준영,박종원,조규향,강석휘,김아영,허찬영",1
64,원광대학교 산본병원,O,O,"경기도 군포시 산본로 321, (산본동)",031-390-2300,경기,병원/의원,27,1,0,,https://map.naver.com/v5/search/%EC%9B%90%EA%B4%91%EB%8C%80%ED%95%99%EA%B5%90%20%EC%82%B0%EB%B3%B8%EB%B3%91%EC%9B%90,https://map.kakao.com/?q=%EC%9B%90%EA%B4%91%EB%8C%80%ED%95%99%EA%B5%90%20%EC%82%B0%EB%B3%B8%EB%B3%91%EC%9B%90,37.3594127,126.9336147,Naver Map Search,2026-05-27 17:18:10,1등급,인증,2026-04-03,1,민혜숙,"민혜숙,김성연",1
65,의료법인 길의료재단 길병원,O,#N/A (),"인천광역시 남동구 남동대로774번길 21-0, 의료법인길의료재단길병원",,인천,병원/의원,95,1,0,,https://map.naver.com/v5/search/%EC%9D%98%EB%A3%8C%EB%B2%95%EC%9D%B8%20%EA%B8%B8%EC%9D%98%EB%A3%8C%EC%9E%AC%EB%8B%A8%20%EA%B8%B8%EB%B3%91%EC%9B%90,https://map.kakao.com/?q=%EC%9D%98%EB%A3%8C%EB%B2%95%EC%9D%B8%20%EA%B8%B8%EC%9D%98%EB%A3%8C%EC%9E%AC%EB%8B%A8%20%EA%B8%B8%EB%B3%91%EC%9B%90,37.452171,126.7092258,Naver Map Search,2026-05-27 17:18:10,1등급,미인증,,0,,,0
66,의료법인 석경의료재단 센트럴병원,O,#N/A (),"경기도 시흥시 공단1대로 237, (정왕동, 센트럴 병원)",031-8041-3000,경기,병원/의원,31,1,0,,https://map.naver.com/v5/search/%EC%9D%98%EB%A3%8C%EB%B2%95%EC%9D%B8%20%EC%84%9D%EA%B2%BD%EC%9D%98%EB%A3%8C%EC%9E%AC%EB%8B%A8%20%EC%84%BC%ED%8A%B8%EB%9F%B4%EB%B3%91%EC%9B%90,https://map.kakao.com/?q=%EC%9D%98%EB%A3%8C%EB%B2%95%EC%9D%B8%20%EC%84%9D%EA%B2%BD%EC%9D%98%EB%A3%8C%EC%9E%AC%EB%8B%A8%20%EC%84%BC%ED%8A%B8%EB%9F%B4%EB%B3%91%EC%9B%90,37.3369084,126.7281267,Naver Map Search,2026-05-27 17:18:10,1등급,미인증,,0,,,0
67,의료법인 영신의료재단 동래유유요양병원,O,#N/A (),"부산광역시 동래구 금강로 64, 동래유유요양병원 지하2~지상8층 (온천동)",051-555-7588,부산,병원/의원,32,1,0,,https://map.naver.com/v5/search/%EC%9D%98%EB%A3%8C%EB%B2%95%EC%9D%B8%20%EC%98%81%EC%8B%A0%EC%9D%98%EB%A3%8C%EC%9E%AC%EB%8B%A8%20%EB%8F%99%EB%9E%98%EC%9C%A0%EC%9C%A0%EC%9A%94%EC%96%91%EB%B3%91%EC%9B%90,https://map.kakao.com/?q=%EC%9D%98%EB%A3%8C%EB%B2%95%EC%9D%B8%20%EC%98%81%EC%8B%A0%EC%9D%98%EB%A3%8C%EC%9E%AC%EB%8B%A8%20%EB%8F%99%EB%9E%98%EC%9C%A0%EC%9C%A0%EC%9A%94%EC%96%91%EB%B3%91%EC%9B%90,35.2149053,129.077549,Naver Map Search,2026-05-27 17:18:10,1등급,미인증,2025-07-30,0,,강효진,0
68,의료법인 인천사랑병원,O,#N/A (),"인천광역시 미추홀구 미추홀대로 726-0, 인천사랑병원",032-457-2000,인천,병원/의원,38,1,0,,https://map.naver.com/v5/search/%EC%9D%98%EB%A3%8C%EB%B2%95%EC%9D%B8%20%EC%9D%B8%EC%B2%9C%EC%82%AC%EB%9E%91%EB%B3%91%EC%9B%90,https://map.kakao.com/?q=%EC%9D%98%EB%A3%8C%EB%B2%95%EC%9D%B8%20%EC%9D%B8%EC%B2%9C%EC%82%AC%EB%9E%91%EB%B3%91%EC%9B%90,37.462204,126.6807094,Naver Map Search,2026-05-27 17:18:10,1등급,미인증,2026-03-16,3,"손지영,조희진,채유라","손지영,조희진,채유라",1
69,의료법인 혜인의료재단 한국병원,O,#N/A (),"제주특별자치도 제주시 서광로 193, (삼도일동)",064-750-0000,제주,병원/의원,39,1,0,,https://map.naver.com/v5/search/%EC%9D%98%EB%A3%8C%EB%B2%95%EC%9D%B8%20%ED%98%9C%EC%9D%B8%EC%9D%98%EB%A3%8C%EC%9E%AC%EB%8B%A8%20%ED%95%9C%EA%B5%AD%EB%B3%91%EC%9B%90,https://map.kakao.com/?q=%EC%9D%98%EB%A3%8C%EB%B2%95%EC%9D%B8%20%ED%98%9C%EC%9D%B8%EC%9D%98%EB%A3%8C%EC%9E%AC%EB%8B%A8%20%ED%95%9C%EA%B5%AD%EB%B3%91%EC%9B%90,33.500233,126.517062,Naver Map Search,2026-05-27 17:18:10,1등급,미인증,,0,,,0
70,의료법인루가의료재단 나은병원,O,#N/A (),"인천광역시 서구 원적로 23, 23",032-584-0114,인천,병원/의원,55,1,0,,https://map.naver.com/v5/search/%EC%9D%98%EB%A3%8C%EB%B2%95%EC%9D%B8%EB%A3%A8%EA%B0%80%EC%9D%98%EB%A3%8C%EC%9E%AC%EB%8B%A8%20%EB%82%98%EC%9D%80%EB%B3%91%EC%9B%90,https://map.kakao.com/?q=%EC%9D%98%EB%A3%8C%EB%B2%95%EC%9D%B8%EB%A3%A8%EA%B0%80%EC%9D%98%EB%A3%8C%EC%9E%AC%EB%8B%A8%20%EB%82%98%EC%9D%80%EB%B3%91%EC%9B%90,37.4890717,126.6797292,Naver Map Search,2026-05-27 17:18:10,1등급,미인증,2026-03-25,4,"진경순,지은영,김지혜,윤정아","진경순,지은영,김지혜,윤정아",1
71,의료법인서울효천의료재단 에이치플러스양지병원,O,#N/A (),"서울특별시 관악구 남부순환로 1636, 양지병원 (신림동)",02-1877-8875,서울,병원/의원,46,1,0,,https://map.naver.com/v5/search/%EC%9D%98%EB%A3%8C%EB%B2%95%EC%9D%B8%EC%84%9C%EC%9A%B8%ED%9A%A8%EC%B2%9C%EC%9D%98%EB%A3%8C%EC%9E%AC%EB%8B%A8%20%EC%97%90%EC%9D%B4%EC%B9%98%ED%94%8C%EB%9F%AC%EC%8A%A4%EC%96%91%EC%A7%80%EB%B3%91%EC%9B%90,https://map.kakao.com/?q=%EC%9D%98%EB%A3%8C%EB%B2%95%EC%9D%B8%EC%84%9C%EC%9A%B8%ED%9A%A8%EC%B2%9C%EC%9D%98%EB%A3%8C%EC%9E%AC%EB%8B%A8%20%EC%97%90%EC%9D%B4%EC%B9%98%ED%94%8C%EB%9F%AC%EC%8A%A4%EC%96%91%EC%A7%80%EB%B3%91%EC%9B%90,37.4841537,126.9325692,Naver Map Search,2026-05-27 17:18:10,1등급,미인증,,0,,,0
72,의료법인영훈의료재단 유성선병원,O,#N/A (),"대전광역시 유성구 북유성대로 93-0,  0동 0호 (지족동,유선성병원)",042-609-1000,대전,병원/의원,37,1,0,,https://map.naver.com/v5/search/%EC%9D%98%EB%A3%8C%EB%B2%95%EC%9D%B8%EC%98%81%ED%9B%88%EC%9D%98%EB%A3%8C%EC%9E%AC%EB%8B%A8%20%EC%9C%A0%EC%84%B1%EC%84%A0%EB%B3%91%EC%9B%90,https://map.kakao.com/?q=%EC%9D%98%EB%A3%8C%EB%B2%95%EC%9D%B8%EC%98%81%ED%9B%88%EC%9D%98%EB%A3%8C%EC%9E%AC%EB%8B%A8%20%EC%9C%A0%EC%84%B1%EC%84%A0%EB%B3%91%EC%9B%90,36.3751715,127.3249507,Naver Map Search,2026-05-27 17:18:10,1등급,미인증,2025-07-30,2,"정사라,최동호","정사라,최동호",1
73,의료법인우리의료재단김포우리병원,O,#N/A (),"경기도 김포시 감암로 11, 김포우리병원 (걸포동)",031-999-1000,경기,병원/의원,57,1,0,,https://map.naver.com/v5/search/%EC%9D%98%EB%A3%8C%EB%B2%95%EC%9D%B8%EC%9A%B0%EB%A6%AC%EC%9D%98%EB%A3%8C%EC%9E%AC%EB%8B%A8%EA%B9%80%ED%8F%AC%EC%9A%B0%EB%A6%AC%EB%B3%91%EC%9B%90,https://map.kakao.com/?q=%EC%9D%98%EB%A3%8C%EB%B2%95%EC%9D%B8%EC%9A%B0%EB%A6%AC%EC%9D%98%EB%A3%8C%EC%9E%AC%EB%8B%A8%EA%B9%80%ED%8F%AC%EC%9A%B0%EB%A6%AC%EB%B3%91%EC%9B%90,37.6323325,126.7107331,Naver Map Search,2026-05-27 17:18:10,1등급,인증,2025-06-10,3,"임혜진,김진선,전상진","임혜진,남윤정,김진선,전상진",1
74,의료법인정화의료재단 봉생기념병원,O,#N/A (),"부산광역시 동구 중앙대로 401, (좌천동, 봉생병원)",051-664-4000,부산,병원/의원,53,1,0,,https://map.naver.com/v5/search/%EC%9D%98%EB%A3%8C%EB%B2%95%EC%9D%B8%EC%A0%95%ED%99%94%EC%9D%98%EB%A3%8C%EC%9E%AC%EB%8B%A8%20%EB%B4%89%EC%83%9D%EA%B8%B0%EB%85%90%EB%B3%91%EC%9B%90,https://map.kakao.com/?q=%EC%9D%98%EB%A3%8C%EB%B2%95%EC%9D%B8%EC%A0%95%ED%99%94%EC%9D%98%EB%A3%8C%EC%9E%AC%EB%8B%A8%20%EB%B4%89%EC%83%9D%EA%B8%B0%EB%85%90%EB%B3%91%EC%9B%90,35.1310265,129.0501907,Naver Map Search,2026-05-27 17:18:10,1등급,미인증,2026-03-06,3,"오준석,안정명,김양현","김중경,오준석,안정명,김희연,김양현",1
75,의료법인한성재단포항세명기독병원,O,#N/A (),"경상북도 포항시 남구 포스코대로 351,  (대도동)",054-275-0005,경북,병원/의원,64,1,0,,https://map.naver.com/v5/search/%EC%9D%98%EB%A3%8C%EB%B2%95%EC%9D%B8%ED%95%9C%EC%84%B1%EC%9E%AC%EB%8B%A8%ED%8F%AC%ED%95%AD%EC%84%B8%EB%AA%85%EA%B8%B0%EB%8F%85%EB%B3%91%EC%9B%90,https://map.kakao.com/?q=%EC%9D%98%EB%A3%8C%EB%B2%95%EC%9D%B8%ED%95%9C%EC%84%B1%EC%9E%AC%EB%8B%A8%ED%8F%AC%ED%95%AD%EC%84%B8%EB%AA%85%EA%B8%B0%EB%8F%85%EB%B3%91%EC%9B%90,36.0177172,129.3622256,Naver Map Search,2026-05-27 17:18:10,1등급,인증,2025-10-13,4,"전은실,김수희,이호준,이병희","전은실,김수희,이호준,이병희",1
76,이수내과의원,O,X,"충청남도 아산시 배방읍 고속철대로 61, 1~5층",041-566-2022,충남,병원/의원,53,1,0,,https://map.naver.com/v5/search/%EC%9D%B4%EC%88%98%EB%82%B4%EA%B3%BC%EC%9D%98%EC%9B%90,https://map.kakao.com/?q=%EC%9D%B4%EC%88%98%EB%82%B4%EA%B3%BC%EC%9D%98%EC%9B%90,36.7897896,127.1078302,Naver Map Search,2026-05-27 17:18:10,1등급,미인증,2025-12-12,2,"김욱준,정찬성","김욱준,정찬성",1
77,이화여자대학교의과대학부속서울병원,O,#N/A (),"서울특별시 강서구 공항대로 260, 이화의대부속서울병원 (마곡동)",1522-7000,서울,병원/의원,53,1,0,,https://map.naver.com/v5/search/%EC%9D%B4%ED%99%94%EC%97%AC%EC%9E%90%EB%8C%80%ED%95%99%EA%B5%90%EC%9D%98%EA%B3%BC%EB%8C%80%ED%95%99%EB%B6%80%EC%86%8D%EC%84%9C%EC%9A%B8%EB%B3%91%EC%9B%90,https://map.kakao.com/?q=%EC%9D%B4%ED%99%94%EC%97%AC%EC%9E%90%EB%8C%80%ED%95%99%EA%B5%90%EC%9D%98%EA%B3%BC%EB%8C%80%ED%95%99%EB%B6%80%EC%86%8D%EC%84%9C%EC%9A%B8%EB%B3%91%EC%9B%90,37.5572629,126.8362668,Naver Map Search,2026-05-27 17:18:10,1등급,미인증,,0,,,0
78,인제대학교 상계백병원,O,X,"서울특별시 노원구 동일로 1342, 상계백병원 (상계동)",02-950-1114,서울,병원/의원,37,1,0,,https://map.naver.com/v5/search/%EC%9D%B8%EC%A0%9C%EB%8C%80%ED%95%99%EA%B5%90%20%EC%83%81%EA%B3%84%EB%B0%B1%EB%B3%91%EC%9B%90,https://map.kakao.com/?q=%EC%9D%B8%EC%A0%9C%EB%8C%80%ED%95%99%EA%B5%90%20%EC%83%81%EA%B3%84%EB%B0%B1%EB%B3%91%EC%9B%90,37.6485408,127.0629909,Naver Map Search,2026-05-27 17:18:10,1등급,미인증,2026-05-11,2,"김상현,유은지","김상현,유은지",1
79,인제대학교 해운대백병원,O,O,"부산광역시 해운대구 해운대로 875, (좌동)",051-797-0100,부산,병원/의원,59,1,0,,https://map.naver.com/v5/search/%EC%9D%B8%EC%A0%9C%EB%8C%80%ED%95%99%EA%B5%90%20%ED%95%B4%EC%9A%B4%EB%8C%80%EB%B0%B1%EB%B3%91%EC%9B%90,https://map.kakao.com/?q=%EC%9D%B8%EC%A0%9C%EB%8C%80%ED%95%99%EA%B5%90%20%ED%95%B4%EC%9A%B4%EB%8C%80%EB%B0%B1%EB%B3%91%EC%9B%90,35.173443,129.182013,Naver Map Search,2026-05-27 17:18:10,1등급,인증,2025-06-25,4,"김양욱,박봉수,박시형,허창민","김양욱,박봉수,박시형,허창민",1
80,인제대학교부산백병원,O,#N/A (),"부산광역시 부산진구 복지로 75, 진사로83번길 75, 진사로83번길 81, 1층(일부), 3층 (개금동)",051-890-6114,부산,병원/의원,55,1,0,,https://map.naver.com/v5/search/%EC%9D%B8%EC%A0%9C%EB%8C%80%ED%95%99%EA%B5%90%EB%B6%80%EC%82%B0%EB%B0%B1%EB%B3%91%EC%9B%90,https://map.kakao.com/?q=%EC%9D%B8%EC%A0%9C%EB%8C%80%ED%95%99%EA%B5%90%EB%B6%80%EC%82%B0%EB%B0%B1%EB%B3%91%EC%9B%90,35.1455173,129.0208609,Naver Map Search,2026-05-27 17:18:10,1등급,미인증,2025-11-05,3,"김영훈,김태희,김윤미","김영훈,김태희,박석주,김윤미",1
81,인제대학교일산백병원,O,#N/A (),"경기도 고양시 일산서구 주화로 170, (대화동)",031-910-7114,경기,병원/의원,42,1,0,,https://map.naver.com/v5/search/%EC%9D%B8%EC%A0%9C%EB%8C%80%ED%95%99%EA%B5%90%EC%9D%BC%EC%82%B0%EB%B0%B1%EB%B3%91%EC%9B%90,https://map.kakao.com/?q=%EC%9D%B8%EC%A0%9C%EB%8C%80%ED%95%99%EA%B5%90%EC%9D%BC%EC%82%B0%EB%B0%B1%EB%B3%91%EC%9B%90,37.6743138,126.7504331,Naver Map Search,2026-05-27 17:18:10,1등급,인증,2026-02-13,3,"한상엽,조형아,한승현","한상엽,조형아,한승현,김태경",1
82,인하대학교의과대학부속병원,O,#N/A (),"인천광역시 중구 인항로 27-0, 인하대학병원",032-890-2114,인천,병원/의원,47,1,0,,https://map.naver.com/v5/search/%EC%9D%B8%ED%95%98%EB%8C%80%ED%95%99%EA%B5%90%EC%9D%98%EA%B3%BC%EB%8C%80%ED%95%99%EB%B6%80%EC%86%8D%EB%B3%91%EC%9B%90,https://map.kakao.com/?q=%EC%9D%B8%ED%95%98%EB%8C%80%ED%95%99%EA%B5%90%EC%9D%98%EA%B3%BC%EB%8C%80%ED%95%99%EB%B6%80%EC%86%8D%EB%B3%91%EC%9B%90,37.4586786,126.6340954,Naver Map Search,2026-05-27 17:18:10,1등급,미인증,,0,,,0
83,재단법인아산사회복지재단 서울아산병원,O,#N/A (),"서울특별시 송파구 올림픽로43길 88, 서울아산병원 (풍납동)",02-3010-3114,서울,병원/의원,114,1,0,,https://map.naver.com/v5/search/%EC%9E%AC%EB%8B%A8%EB%B2%95%EC%9D%B8%EC%95%84%EC%82%B0%EC%82%AC%ED%9A%8C%EB%B3%B5%EC%A7%80%EC%9E%AC%EB%8B%A8%20%EC%84%9C%EC%9A%B8%EC%95%84%EC%82%B0%EB%B3%91%EC%9B%90,https://map.kakao.com/?q=%EC%9E%AC%EB%8B%A8%EB%B2%95%EC%9D%B8%EC%95%84%EC%82%B0%EC%82%AC%ED%9A%8C%EB%B3%B5%EC%A7%80%EC%9E%AC%EB%8B%A8%20%EC%84%9C%EC%9A%B8%EC%95%84%EC%82%B0%EB%B3%91%EC%9B%90,37.5265762,127.107935,Naver Map Search,2026-05-27 17:18:10,1등급,미인증,,0,,,0
84,재단법인일신기독교선교회 일신기독병원,O,#N/A (),"부산광역시 동구 정공단로 27, (좌천동)",051-630-0300,부산,병원/의원,28,1,0,,https://map.naver.com/v5/search/%EC%9E%AC%EB%8B%A8%EB%B2%95%EC%9D%B8%EC%9D%BC%EC%8B%A0%EA%B8%B0%EB%8F%85%EA%B5%90%EC%84%A0%EA%B5%90%ED%9A%8C%20%EC%9D%BC%EC%8B%A0%EA%B8%B0%EB%8F%85%EB%B3%91%EC%9B%90,https://map.kakao.com/?q=%EC%9E%AC%EB%8B%A8%EB%B2%95%EC%9D%B8%EC%9D%BC%EC%8B%A0%EA%B8%B0%EB%8F%85%EA%B5%90%EC%84%A0%EA%B5%90%ED%9A%8C%20%EC%9D%BC%EC%8B%A0%EA%B8%B0%EB%8F%85%EB%B3%91%EC%9B%90,35.135783,129.0543811,Naver Map Search,2026-05-27 17:18:10,1등급,인증,2026-01-07,2,"신민지,전해수","신민지,전해수",1
85,전남대학교병원,O,O,"광주광역시 동구 제봉로 42,  (학동)",062-1899-0000,광주,병원/의원,67,1,0,,https://map.naver.com/v5/search/%EC%A0%84%EB%82%A8%EB%8C%80%ED%95%99%EA%B5%90%EB%B3%91%EC%9B%90,https://map.kakao.com/?q=%EC%A0%84%EB%82%A8%EB%8C%80%ED%95%99%EA%B5%90%EB%B3%91%EC%9B%90,35.1418094,126.9215805,Naver Map Search,2026-05-27 17:18:10,1등급,인증,2026-03-25,8,"마성권,김남호,김수완,배은희,김창성,최홍상,송수현,박혜진","마성권,김남호,김수완,배은희,김창성,최홍상,송수현,박혜진",1
86,전북대학교병원,O,O,"전북특별자치도 전주시 덕진구 건지로 20,  (금암동)",063-250-1129,전북,병원/의원,31,1,0,,https://map.naver.com/v5/search/%EC%A0%84%EB%B6%81%EB%8C%80%ED%95%99%EA%B5%90%EB%B3%91%EC%9B%90,https://map.kakao.com/?q=%EC%A0%84%EB%B6%81%EB%8C%80%ED%95%99%EA%B5%90%EB%B3%91%EC%9B%90,35.8470974,127.1411626,Naver Map Search,2026-05-27 17:18:10,1등급,인증,2026-03-16,3,"김원,최승혁,이수진","김원,이식,강경표,김형완,염지현,최승혁,이수진",1
87,제일병원,O,#N/A (),"경상남도 진주시 진주대로 885, (강남동)",055-750-7123,경남,병원/의원,35,1,0,,https://map.naver.com/v5/search/%EC%A0%9C%EC%9D%BC%EB%B3%91%EC%9B%90,https://map.kakao.com/?q=%EC%A0%9C%EC%9D%BC%EB%B3%91%EC%9B%90,35.1794722,128.0902544,Naver Map Search,2026-05-27 17:18:10,1등급,미인증,2026-04-10,1,김경훈,김경훈,1
88,중앙대학교광명병원,O,#N/A (),"경기도 광명시 덕안로 110, (일직동)",1811-7800,경기,병원/의원,32,1,0,,https://map.naver.com/v5/search/%EC%A4%91%EC%95%99%EB%8C%80%ED%95%99%EA%B5%90%EA%B4%91%EB%AA%85%EB%B3%91%EC%9B%90,https://map.kakao.com/?q=%EC%A4%91%EC%95%99%EB%8C%80%ED%95%99%EA%B5%90%EA%B4%91%EB%AA%85%EB%B3%91%EC%9B%90,37.4245975,126.88591,Naver Map Search,2026-05-27 17:18:10,1등급,인증,2026-04-17,5,"김수현,손형은,조세민,조정민,전재완","김수현,손형은,조세민,조정민,전재완,이향윤",1
89,중앙대학교병원,O,O,"서울특별시 동작구 흑석로 102, (흑석동)",1800-1114,서울,병원/의원,37,1,0,,https://map.naver.com/v5/search/%EC%A4%91%EC%95%99%EB%8C%80%ED%95%99%EA%B5%90%EB%B3%91%EC%9B%90,https://map.kakao.com/?q=%EC%A4%91%EC%95%99%EB%8C%80%ED%95%99%EA%B5%90%EB%B3%91%EC%9B%90,37.5067481,126.9607839,Naver Map Search,2026-05-27 17:18:10,1등급,인증,2026-04-28,3,"신정호,황진호,권소이","신정호,황진호,권소이,김지영,강수지,정찬영",1
90,차의과학대학교분당차병원,O,#N/A (),"경기도 성남시 분당구 야탑로 59, (야탑동)",031-780-5000,경기,병원/의원,57,1,0,,https://map.naver.com/v5/search/%EC%B0%A8%EC%9D%98%EA%B3%BC%ED%95%99%EB%8C%80%ED%95%99%EA%B5%90%EB%B6%84%EB%8B%B9%EC%B0%A8%EB%B3%91%EC%9B%90,https://map.kakao.com/?q=%EC%B0%A8%EC%9D%98%EA%B3%BC%ED%95%99%EB%8C%80%ED%95%99%EA%B5%90%EB%B6%84%EB%8B%B9%EC%B0%A8%EB%B3%91%EC%9B%90,37.4102384,127.1254535,Naver Map Search,2026-05-27 17:18:10,1등급,인증,2026-03-10,9,"양동호,김형종,이소영,정혜윤,이유호,양태영,정상현,이혜민,정석현","양동호,김형종,이소영,정혜윤,이유호,양태영,정상현,이혜민,정석현",1
91,창원경상국립대학교병원,O,#N/A (),"경상남도 창원시 성산구 삼정자로 11, (성주동, 창원경상대학교병원)",055-214-2000,경남,병원/의원,52,1,0,,https://map.naver.com/v5/search/%EC%B0%BD%EC%9B%90%EA%B2%BD%EC%83%81%EA%B5%AD%EB%A6%BD%EB%8C%80%ED%95%99%EA%B5%90%EB%B3%91%EC%9B%90,https://map.kakao.com/?q=%EC%B0%BD%EC%9B%90%EA%B2%BD%EC%83%81%EA%B5%AD%EB%A6%BD%EB%8C%80%ED%95%99%EA%B5%90%EB%B3%91%EC%9B%90,35.1990873,128.7078463,Naver Map Search,2026-05-27 17:18:10,1등급,인증,2026-03-23,1,배은진,"배은진,박동준,이태원",1
92,충남대학교병원,O,O,"대전광역시 중구 문화로 282, (대사동)",042-1599-7123,대전,병원/의원,51,1,0,,https://map.naver.com/v5/search/%EC%B6%A9%EB%82%A8%EB%8C%80%ED%95%99%EA%B5%90%EB%B3%91%EC%9B%90,https://map.kakao.com/?q=%EC%B6%A9%EB%82%A8%EB%8C%80%ED%95%99%EA%B5%90%EB%B3%91%EC%9B%90,36.316908,127.415363,Naver Map Search,2026-05-27 17:18:10,1등급,인증,2026-02-25,4,"나기량,함영록,이유진,박경호","나기량,최대은,함영록,이유진,박경호,황윤경",1
93,충북대학교병원,O,O,"충청북도 청주시 서원구 1순환로 776-0, 충북대학교병원",043-269-6114,충북,병원/의원,87,1,0,,https://map.naver.com/v5/search/%EC%B6%A9%EB%B6%81%EB%8C%80%ED%95%99%EA%B5%90%EB%B3%91%EC%9B%90,https://map.kakao.com/?q=%EC%B6%A9%EB%B6%81%EB%8C%80%ED%95%99%EA%B5%90%EB%B3%91%EC%9B%90,36.6242237,127.4614843,Naver Map Search,2026-05-27 17:18:10,1등급,인증,2026-05-26,4,"김혜영,김선문,조현정,김지혜","김혜영,김선문,조현정,김지혜",1
94,충청남도 천안의료원,O,O,"충청남도 천안시 동남구 충절로 537,  (삼룡동)",041-570-7200,충남,병원/의원,31,1,0,,https://map.naver.com/v5/search/%EC%B6%A9%EC%B2%AD%EB%82%A8%EB%8F%84%20%EC%B2%9C%EC%95%88%EC%9D%98%EB%A3%8C%EC%9B%90,https://map.kakao.com/?q=%EC%B6%A9%EC%B2%AD%EB%82%A8%EB%8F%84%20%EC%B2%9C%EC%95%88%EC%9D%98%EB%A3%8C%EC%9B%90,36.7756271,127.1791797,Naver Map Search,2026-05-27 17:18:10,1등급,인증,2026-05-04,2,"임성결,박금숙","임성결,박금숙",1
95,충청북도 청주의료원,O,#N/A (),"충청북도 청주시 서원구 흥덕로 48-0, 청주의료원",043-279-2300,충북,병원/의원,22,1,0,,https://map.naver.com/v5/search/%EC%B6%A9%EC%B2%AD%EB%B6%81%EB%8F%84%20%EC%B2%AD%EC%A3%BC%EC%9D%98%EB%A3%8C%EC%9B%90,https://map.kakao.com/?q=%EC%B6%A9%EC%B2%AD%EB%B6%81%EB%8F%84%20%EC%B2%AD%EC%A3%BC%EC%9D%98%EB%A3%8C%EC%9B%90,36.6402026,127.4730326,Naver Map Search,2026-05-27 17:18:10,1등급,인증,2026-03-31,1,김자선,"김자선,김자선",1
96,칠곡경북대학교병원,O,O,"대구광역시 북구 호국로 807, 칠곡경북대학교병원(임상실습동 1~11층 포함) (학정동)",053-200-2000,대구,병원/의원,40,1,0,,https://map.naver.com/v5/search/%EC%B9%A0%EA%B3%A1%EA%B2%BD%EB%B6%81%EB%8C%80%ED%95%99%EA%B5%90%EB%B3%91%EC%9B%90,https://map.kakao.com/?q=%EC%B9%A0%EA%B3%A1%EA%B2%BD%EB%B6%81%EB%8C%80%ED%95%99%EA%B5%90%EB%B3%91%EC%9B%90,35.9564207,128.5646727,Naver Map Search,2026-05-27 17:18:10,1등급,인증,2026-03-24,3,"최지영,임정훈,김민규","최지영,임정훈,김민규",1
97,학교법인 가톨릭학원 가톨릭대학교 대전성모병원,O,#N/A (),"대전광역시 중구 대흥로 64, (대흥동)",042-220-9114,대전,병원/의원,42,1,0,,https://map.naver.com/v5/search/%ED%95%99%EA%B5%90%EB%B2%95%EC%9D%B8%20%EA%B0%80%ED%86%A8%EB%A6%AD%ED%95%99%EC%9B%90%20%EA%B0%80%ED%86%A8%EB%A6%AD%EB%8C%80%ED%95%99%EA%B5%90%20%EB%8C%80%EC%A0%84%EC%84%B1%EB%AA%A8%EB%B3%91%EC%9B%90,https://map.kakao.com/?q=%ED%95%99%EA%B5%90%EB%B2%95%EC%9D%B8%20%EA%B0%80%ED%86%A8%EB%A6%AD%ED%95%99%EC%9B%90%20%EA%B0%80%ED%86%A8%EB%A6%AD%EB%8C%80%ED%95%99%EA%B5%90%20%EB%8C%80%EC%A0%84%EC%84%B1%EB%AA%A8%EB%B3%91%EC%9B%90,36.323042,127.4201629,Naver Map Search,2026-05-27 17:18:10,1등급,인증,2026-02-09,5,"장윤경,홍유아,한수연,박화진,황윤경","장윤경,홍유아,한수연,박화진,황윤경",1
98,학교법인 건양교육재단 건양대학교병원,O,#N/A (),"대전광역시 서구 관저동로 158, (관저동)",042-600-9999,대전,병원/의원,119,1,0,,https://map.naver.com/v5/search/%ED%95%99%EA%B5%90%EB%B2%95%EC%9D%B8%20%EA%B1%B4%EC%96%91%EA%B5%90%EC%9C%A1%EC%9E%AC%EB%8B%A8%20%EA%B1%B4%EC%96%91%EB%8C%80%ED%95%99%EA%B5%90%EB%B3%91%EC%9B%90,https://map.kakao.com/?q=%ED%95%99%EA%B5%90%EB%B2%95%EC%9D%B8%20%EA%B1%B4%EC%96%91%EA%B5%90%EC%9C%A1%EC%9E%AC%EB%8B%A8%20%EA%B1%B4%EC%96%91%EB%8C%80%ED%95%99%EA%B5%90%EB%B3%91%EC%9B%90,36.306642,127.342613,Naver Map Search,2026-05-27 17:18:10,1등급,인증,2026-03-23,6,"윤성노,황원민,윤세희,박요한,이지원,신유진","윤성노,황원민,윤세희,박요한,이지원,신유진",1
99,학교법인 고려중앙학원 고려대학교의과대학부속병원(안암병원),O,#N/A (),"서울특별시 성북구 고려대로 73, 고려대병원 (안암동5가)",1577-0083,서울,병원/의원,61,1,0,,https://map.naver.com/v5/search/%ED%95%99%EA%B5%90%EB%B2%95%EC%9D%B8%20%EA%B3%A0%EB%A0%A4%EC%A4%91%EC%95%99%ED%95%99%EC%9B%90%20%EA%B3%A0%EB%A0%A4%EB%8C%80%ED%95%99%EA%B5%90%EC%9D%98%EA%B3%BC%EB%8C%80%ED%95%99%EB%B6%80%EC%86%8D%EB%B3%91%EC%9B%90%28%EC%95%88%EC%95%94%EB%B3%91%EC%9B%90%29,https://map.kakao.com/?q=%ED%95%99%EA%B5%90%EB%B2%95%EC%9D%B8%20%EA%B3%A0%EB%A0%A4%EC%A4%91%EC%95%99%ED%95%99%EC%9B%90%20%EA%B3%A0%EB%A0%A4%EB%8C%80%ED%95%99%EA%B5%90%EC%9D%98%EA%B3%BC%EB%8C%80%ED%95%99%EB%B6%80%EC%86%8D%EB%B3%91%EC%9B%90%28%EC%95%88%EC%95%94%EB%B3%91%EC%9B%90%29,37.5870165,127.0263537,Naver Map Search,2026-05-27 17:18:10,1등급,미인증,,0,,,0
100,학교법인 울산공업학원 울산대학교병원,O,#N/A (),"울산광역시 동구 대학병원로 25, 울산대학교병원 (전하동)",052-250-7000,울산,병원/의원,88,1,0,,https://map.naver.com/v5/search/%ED%95%99%EA%B5%90%EB%B2%95%EC%9D%B8%20%EC%9A%B8%EC%82%B0%EA%B3%B5%EC%97%85%ED%95%99%EC%9B%90%20%EC%9A%B8%EC%82%B0%EB%8C%80%ED%95%99%EA%B5%90%EB%B3%91%EC%9B%90,https://map.kakao.com/?q=%ED%95%99%EA%B5%90%EB%B2%95%EC%9D%B8%20%EC%9A%B8%EC%82%B0%EA%B3%B5%EC%97%85%ED%95%99%EC%9B%90%20%EC%9A%B8%EC%82%B0%EB%8C%80%ED%95%99%EA%B5%90%EB%B3%91%EC%9B%90,35.5200702,129.4289116,Naver Map Search,2026-05-27 17:18:10,1등급,인증,2026-03-24,5,"이종수,유경돈,박종하,박경선,박은희","이종수,유경돈,박종하,박경선,박은희",1
101,학교법인가톨릭학원가톨릭대학교서울성모병원,O,#N/A (),"서울특별시 서초구 반포대로 222, (반포동)",02-1588-1511,서울,병원/의원,55,1,0,,https://map.naver.com/v5/search/%ED%95%99%EA%B5%90%EB%B2%95%EC%9D%B8%EA%B0%80%ED%86%A8%EB%A6%AD%ED%95%99%EC%9B%90%EA%B0%80%ED%86%A8%EB%A6%AD%EB%8C%80%ED%95%99%EA%B5%90%EC%84%9C%EC%9A%B8%EC%84%B1%EB%AA%A8%EB%B3%91%EC%9B%90,https://map.kakao.com/?q=%ED%95%99%EA%B5%90%EB%B2%95%EC%9D%B8%EA%B0%80%ED%86%A8%EB%A6%AD%ED%95%99%EC%9B%90%EA%B0%80%ED%86%A8%EB%A6%AD%EB%8C%80%ED%95%99%EA%B5%90%EC%84%9C%EC%9A%B8%EC%84%B1%EB%AA%A8%EB%B3%91%EC%9B%90,37.5009444,127.0051154,Naver Map Search,2026-05-27 17:18:10,1등급,미인증,2026-03-05,6,"정병하,박철휘,윤혜은,박훈석,김예니,이한비","정병하,박철휘,윤혜은,박훈석,김예니,이한비",1
102,학교법인성균관대학삼성창원병원,O,#N/A (),"경상남도 창원시 마산회원구 팔용로 158-158, (합성동, 삼성창원병원)",055-233-8899,경남,병원/의원,53,1,0,,https://map.naver.com/v5/search/%ED%95%99%EA%B5%90%EB%B2%95%EC%9D%B8%EC%84%B1%EA%B7%A0%EA%B4%80%EB%8C%80%ED%95%99%EC%82%BC%EC%84%B1%EC%B0%BD%EC%9B%90%EB%B3%91%EC%9B%90,https://map.kakao.com/?q=%ED%95%99%EA%B5%90%EB%B2%95%EC%9D%B8%EC%84%B1%EA%B7%A0%EA%B4%80%EB%8C%80%ED%95%99%EC%82%BC%EC%84%B1%EC%B0%BD%EC%9B%90%EB%B3%91%EC%9B%90,35.2424957,128.5923771,Naver Map Search,2026-05-27 17:18:10,1등급,인증,2025-10-01,5,"김성록,이유지,나진희,박인호,박선영","김성록,이유지,나진희,박인호,박선영",1
103,한국보훈복지의료공단 대구보훈병원,O,#N/A (),"대구광역시 달서구 월곡로 60, (도원동)",053-630-7000,대구,병원/의원,30,1,0,,https://map.naver.com/v5/search/%ED%95%9C%EA%B5%AD%EB%B3%B4%ED%9B%88%EB%B3%B5%EC%A7%80%EC%9D%98%EB%A3%8C%EA%B3%B5%EB%8B%A8%20%EB%8C%80%EA%B5%AC%EB%B3%B4%ED%9B%88%EB%B3%91%EC%9B%90,https://map.kakao.com/?q=%ED%95%9C%EA%B5%AD%EB%B3%B4%ED%9B%88%EB%B3%B5%EC%A7%80%EC%9D%98%EB%A3%8C%EA%B3%B5%EB%8B%A8%20%EB%8C%80%EA%B5%AC%EB%B3%B4%ED%9B%88%EB%B3%91%EC%9B%90,35.8028206,128.5519785,Naver Map Search,2026-05-27 17:18:10,1등급,미인증,2026-03-19,2,"박승찬,이경희","박승찬,이경희",1
104,한국보훈복지의료공단 부산보훈병원,O,#N/A (),"부산광역시 사상구 백양대로 420, (주례동)",051-601-6000,부산,병원/의원,56,1,0,,https://map.naver.com/v5/search/%ED%95%9C%EA%B5%AD%EB%B3%B4%ED%9B%88%EB%B3%B5%EC%A7%80%EC%9D%98%EB%A3%8C%EA%B3%B5%EB%8B%A8%20%EB%B6%80%EC%82%B0%EB%B3%B4%ED%9B%88%EB%B3%91%EC%9B%90,https://map.kakao.com/?q=%ED%95%9C%EA%B5%AD%EB%B3%B4%ED%9B%88%EB%B3%B5%EC%A7%80%EC%9D%98%EB%A3%8C%EA%B3%B5%EB%8B%A8%20%EB%B6%80%EC%82%B0%EB%B3%B4%ED%9B%88%EB%B3%91%EC%9B%90,35.1533821,129.006575,Naver Map Search,2026-05-27 17:18:10,1등급,미인증,2026-03-20,1,이유진,이유진,1
105,한국보훈복지의료공단 중앙보훈병원,O,#N/A (),"서울특별시 강동구 진황도로61길 53, (둔촌동)",02-2225-1111,서울,병원/의원,8,1,0,,https://map.naver.com/v5/search/%ED%95%9C%EA%B5%AD%EB%B3%B4%ED%9B%88%EB%B3%B5%EC%A7%80%EC%9D%98%EB%A3%8C%EA%B3%B5%EB%8B%A8%20%EC%A4%91%EC%95%99%EB%B3%B4%ED%9B%88%EB%B3%91%EC%9B%90,https://map.kakao.com/?q=%ED%95%9C%EA%B5%AD%EB%B3%B4%ED%9B%88%EB%B3%B5%EC%A7%80%EC%9D%98%EB%A3%8C%EA%B3%B5%EB%8B%A8%20%EC%A4%91%EC%95%99%EB%B3%B4%ED%9B%88%EB%B3%91%EC%9B%90,37.5303393,127.1478691,Naver Map Search,2026-05-27 17:18:10,1등급,인증,2025-12-17,5,"문경협,이동영,이상희,유주리,이미정","문경협,김범,이동영,이상희,정진선,유주리,이미정",1
106,한림대학교 강남성심병원,O,O,"서울특별시 영등포구 신길로 1, (대림동, 강남성심병원)",02-829-5114,서울,병원/의원,58,1,0,,https://map.naver.com/v5/search/%ED%95%9C%EB%A6%BC%EB%8C%80%ED%95%99%EA%B5%90%20%EA%B0%95%EB%82%A8%EC%84%B1%EC%8B%AC%EB%B3%91%EC%9B%90,https://map.kakao.com/?q=%ED%95%9C%EB%A6%BC%EB%8C%80%ED%95%99%EA%B5%90%20%EA%B0%95%EB%82%A8%EC%84%B1%EC%8B%AC%EB%B3%91%EC%9B%90,37.4937262,126.9086527,Naver Map Search,2026-05-27 17:18:10,1등급,인증,2026-04-02,5,"이영기,이수아,박혜인,김도형,김은지","이영기,이수아,박혜인,김도형,김은지",1
107,한림대학교동탄성심병원,O,#N/A (),"경기도 화성시 동탄구 큰재봉길 7, (석우동)",031-8086-3000,경기,병원/의원,83,1,0,,https://map.naver.com/v5/search/%ED%95%9C%EB%A6%BC%EB%8C%80%ED%95%99%EA%B5%90%EB%8F%99%ED%83%84%EC%84%B1%EC%8B%AC%EB%B3%91%EC%9B%90,https://map.kakao.com/?q=%ED%95%9C%EB%A6%BC%EB%8C%80%ED%95%99%EA%B5%90%EB%8F%99%ED%83%84%EC%84%B1%EC%8B%AC%EB%B3%91%EC%9B%90,37.2166283,127.0801288,Naver Map Search,2026-05-27 17:18:10,1등급,인증,2026-03-27,6,"구자룡,서장원,백선하,김은정,윤기애,류수령","구자룡,서장원,백선하,김은정,윤기애,류수령",1
108,한림대학교성심병원,O,#N/A (),"경기도 안양시 동안구 관평로170번길 22, (평촌동)",031-380-1500,경기,병원/의원,104,1,0,,https://map.naver.com/v5/search/%ED%95%9C%EB%A6%BC%EB%8C%80%ED%95%99%EA%B5%90%EC%84%B1%EC%8B%AC%EB%B3%91%EC%9B%90,https://map.kakao.com/?q=%ED%95%9C%EB%A6%BC%EB%8C%80%ED%95%99%EA%B5%90%EC%84%B1%EC%8B%AC%EB%B3%91%EC%9B%90,37.3917575,126.9620529,Naver Map Search,2026-05-27 17:18:10,1등급,미인증,,0,,,0
109,한림대학교춘천성심병원,O,#N/A (),"강원특별자치도 춘천시 삭주로 77, 77",033-240-5000,강원,병원/의원,52,1,0,,https://map.naver.com/v5/search/%ED%95%9C%EB%A6%BC%EB%8C%80%ED%95%99%EA%B5%90%EC%B6%98%EC%B2%9C%EC%84%B1%EC%8B%AC%EB%B3%91%EC%9B%90,https://map.kakao.com/?q=%ED%95%9C%EB%A6%BC%EB%8C%80%ED%95%99%EA%B5%90%EC%B6%98%EC%B2%9C%EC%84%B1%EC%8B%AC%EB%B3%91%EC%9B%90,37.8840791,127.7399592,Naver Map Search,2026-05-27 17:18:10,1등급,미인증,,0,,,0
110,한림병원,O,#N/A (),"인천광역시 계양구 장제로 722, (작전동)",032-540-9114,인천,병원/의원,40,1,0,,https://map.naver.com/v5/search/%ED%95%9C%EB%A6%BC%EB%B3%91%EC%9B%90,https://map.kakao.com/?q=%ED%95%9C%EB%A6%BC%EB%B3%91%EC%9B%90,37.5320982,126.7343513,Naver Map Search,2026-05-27 17:18:10,1등급,미인증,,0,,,0
111,한양대학교구리병원,O,#N/A (),"경기도 구리시 경춘로 153, (교문동)",1644-9118,경기,병원/의원,36,1,0,,https://map.naver.com/v5/search/%ED%95%9C%EC%96%91%EB%8C%80%ED%95%99%EA%B5%90%EA%B5%AC%EB%A6%AC%EB%B3%91%EC%9B%90,https://map.kakao.com/?q=%ED%95%9C%EC%96%91%EB%8C%80%ED%95%99%EA%B5%90%EA%B5%AC%EB%A6%AC%EB%B3%91%EC%9B%90,37.6012985,127.1324273,Naver Map Search,2026-05-27 17:18:10,1등급,미인증,2026-05-08,5,"유미연,한상웅,방지선,이선민,이신영","유미연,한상웅,방지선,이선민,이신영",1
112,한양대학교병원,O,O,"서울특별시 성동구 왕십리로 222-1, (사근동)",02-2290-8114,서울,병원/의원,54,1,0,,https://map.naver.com/v5/search/%ED%95%9C%EC%96%91%EB%8C%80%ED%95%99%EA%B5%90%EB%B3%91%EC%9B%90,https://map.kakao.com/?q=%ED%95%9C%EC%96%91%EB%8C%80%ED%95%99%EA%B5%90%EB%B3%91%EC%9B%90,37.5596569,127.0441339,Naver Map Search,2026-05-27 17:18:10,1등급,인증,2026-03-30,3,"이창화,박준성,최종욱","이창화,박준성,최종욱,이용준",1
113,해피뷰병원,O,#N/A (),"광주광역시 북구 경열로 216-0, 해피뷰병원",062-519-9000,광주,병원/의원,25,1,0,,https://map.naver.com/v5/search/%ED%95%B4%ED%94%BC%EB%B7%B0%EB%B3%91%EC%9B%90,https://map.kakao.com/?q=%ED%95%B4%ED%94%BC%EB%B7%B0%EB%B3%91%EC%9B%90,35.1586417,126.906773,Naver Map Search,2026-05-27 17:18:10,1등급,미인증,,0,,,0
114,효산의료재단 지샘병원,O,#N/A (),"경기도 군포시 군포로 591, (당동, (G샘병원)군포샘병원)",031-389-3000,경기,병원/의원,29,1,0,,https://map.naver.com/v5/search/%ED%9A%A8%EC%82%B0%EC%9D%98%EB%A3%8C%EC%9E%AC%EB%8B%A8%20%EC%A7%80%EC%83%98%EB%B3%91%EC%9B%90,https://map.kakao.com/?q=%ED%9A%A8%EC%82%B0%EC%9D%98%EB%A3%8C%EC%9E%AC%EB%8B%A8%20%EC%A7%80%EC%83%98%EB%B3%91%EC%9B%90,37.358672,126.9473164,Naver Map Search,2026-05-27 17:18:10,1등급,인증,2025-10-27,2,"이재원,박혜상","이재원,박혜상",1
115,(사)모퉁이복지재단 인천재활의원,O,#N/A (),"인천광역시 미추홀구 인주대로 290, (주안동)",032-861-0102,인천,병원/의원,55,1,0,,https://map.naver.com/v5/search/%28%EC%82%AC%29%EB%AA%A8%ED%89%81%EC%9D%B4%EB%B3%B5%EC%A7%80%EC%9E%AC%EB%8B%A8%20%EC%9D%B8%EC%B2%9C%EC%9E%AC%ED%99%9C%EC%9D%98%EC%9B%90,https://map.kakao.com/?q=%28%EC%82%AC%29%EB%AA%A8%ED%89%81%EC%9D%B4%EB%B3%B5%EC%A7%80%EC%9E%AC%EB%8B%A8%20%EC%9D%B8%EC%B2%9C%EC%9E%AC%ED%99%9C%EC%9D%98%EC%9B%90,37.4518788,126.6686433,Naver Map Search,2026-05-27 17:18:10,2등급,미인증,,0,,,0
116,(의) 열린의료재단 강동열린의원,O,#N/A (),"서울특별시 강동구 천호대로 1092, 1층 112호,113호 (성내동, SK허브진)",02-485-7575,서울,병원/의원,22,1,0,,https://map.naver.com/v5/search/%28%EC%9D%98%29%20%EC%97%B4%EB%A6%B0%EC%9D%98%EB%A3%8C%EC%9E%AC%EB%8B%A8%20%EA%B0%95%EB%8F%99%EC%97%B4%EB%A6%B0%EC%9D%98%EC%9B%90,https://map.kakao.com/?q=%28%EC%9D%98%29%20%EC%97%B4%EB%A6%B0%EC%9D%98%EB%A3%8C%EC%9E%AC%EB%8B%A8%20%EA%B0%95%EB%8F%99%EC%97%B4%EB%A6%B0%EC%9D%98%EC%9B%90,37.5352302,127.1326141,Naver Map Search,2026-05-27 17:18:10,2등급,인증,2026-02-19,1,최경아,최경아,1
117,(의) 열린의료재단 대구열린의원,O,#N/A (),"대구광역시 중구 중앙대로 359, 반월당메티칼오피스타워 5,6층 (남산동)",053-565-5501,대구,병원/의원,38,1,0,,https://map.naver.com/v5/search/%28%EC%9D%98%29%20%EC%97%B4%EB%A6%B0%EC%9D%98%EB%A3%8C%EC%9E%AC%EB%8B%A8%20%EB%8C%80%EA%B5%AC%EC%97%B4%EB%A6%B0%EC%9D%98%EC%9B%90,https://map.kakao.com/?q=%28%EC%9D%98%29%20%EC%97%B4%EB%A6%B0%EC%9D%98%EB%A3%8C%EC%9E%AC%EB%8B%A8%20%EB%8C%80%EA%B5%AC%EC%97%B4%EB%A6%B0%EC%9D%98%EC%9B%90,35.8650479,128.5927741,Naver Map Search,2026-05-27 17:18:10,2등급,인증,2025-06-05,2,"서혜진,진미경","서혜진,진미경",1
118,(의) 열린의료재단 동대문열린의원,O,#N/A (),"서울특별시 종로구 종로 335, 원풍빌딩 6층 (창신동)",02-924-0875,서울,병원/의원,26,1,0,,https://map.naver.com/v5/search/%28%EC%9D%98%29%20%EC%97%B4%EB%A6%B0%EC%9D%98%EB%A3%8C%EC%9E%AC%EB%8B%A8%20%EB%8F%99%EB%8C%80%EB%AC%B8%EC%97%B4%EB%A6%B0%EC%9D%98%EC%9B%90,https://map.kakao.com/?q=%28%EC%9D%98%29%20%EC%97%B4%EB%A6%B0%EC%9D%98%EB%A3%8C%EC%9E%AC%EB%8B%A8%20%EB%8F%99%EB%8C%80%EB%AC%B8%EC%97%B4%EB%A6%B0%EC%9D%98%EC%9B%90,37.573106,127.0148389,Naver Map Search,2026-05-27 17:18:10,2등급,인증,2026-02-04,1,이선영,이선영,1
119,(의) 열린의료재단 서초열린의원,O,#N/A (),"서울특별시 서초구 서초대로 320, 하림인터내셔날빌딩 3층 (서초동)",02-522-0872,서울,병원/의원,29,1,0,,https://map.naver.com/v5/search/%28%EC%9D%98%29%20%EC%97%B4%EB%A6%B0%EC%9D%98%EB%A3%8C%EC%9E%AC%EB%8B%A8%20%EC%84%9C%EC%B4%88%EC%97%B4%EB%A6%B0%EC%9D%98%EC%9B%90,https://map.kakao.com/?q=%28%EC%9D%98%29%20%EC%97%B4%EB%A6%B0%EC%9D%98%EB%A3%8C%EC%9E%AC%EB%8B%A8%20%EC%84%9C%EC%B4%88%EC%97%B4%EB%A6%B0%EC%9D%98%EC%9B%90,37.4942268,127.0165951,Naver Map Search,2026-05-27 17:18:10,2등급,미인증,2026-02-23,1,황정아,황정아,1
120,(의) 열린의료재단 성남열린의원,O,#N/A (),"경기도 성남시 수정구 수정로 185, 6층 (태평동)",031-747-0875,경기,병원/의원,33,1,0,,https://map.naver.com/v5/search/%28%EC%9D%98%29%20%EC%97%B4%EB%A6%B0%EC%9D%98%EB%A3%8C%EC%9E%AC%EB%8B%A8%20%EC%84%B1%EB%82%A8%EC%97%B4%EB%A6%B0%EC%9D%98%EC%9B%90,https://map.kakao.com/?q=%28%EC%9D%98%29%20%EC%97%B4%EB%A6%B0%EC%9D%98%EB%A3%8C%EC%9E%AC%EB%8B%A8%20%EC%84%B1%EB%82%A8%EC%97%B4%EB%A6%B0%EC%9D%98%EC%9B%90,37.4437912,127.1404742,Naver Map Search,2026-05-27 17:18:10,2등급,인증,2026-02-10,1,김경아,김경아,1
121,(의) 열린의료재단 영등포열린의원,O,#N/A (),"서울특별시 영등포구 경인로 841, 영등포우체국 4,5층 (영등포동4가)",02-2676-0832,서울,병원/의원,31,1,0,,https://map.naver.com/v5/search/%28%EC%9D%98%29%20%EC%97%B4%EB%A6%B0%EC%9D%98%EB%A3%8C%EC%9E%AC%EB%8B%A8%20%EC%98%81%EB%93%B1%ED%8F%AC%EC%97%B4%EB%A6%B0%EC%9D%98%EC%9B%90,https://map.kakao.com/?q=%28%EC%9D%98%29%20%EC%97%B4%EB%A6%B0%EC%9D%98%EB%A3%8C%EC%9E%AC%EB%8B%A8%20%EC%98%81%EB%93%B1%ED%8F%AC%EC%97%B4%EB%A6%B0%EC%9D%98%EC%9B%90,37.5165276,126.90606,Naver Map Search,2026-05-27 17:18:10,2등급,미인증,,0,,,0
122,(의) 열린의료재단 은평열린의원,O,#N/A (),"서울특별시 은평구 서오릉로 145, 상원빌딩 4층 (구산동)",02-354-7168,서울,병원/의원,32,1,0,,https://map.naver.com/v5/search/%28%EC%9D%98%29%20%EC%97%B4%EB%A6%B0%EC%9D%98%EB%A3%8C%EC%9E%AC%EB%8B%A8%20%EC%9D%80%ED%8F%89%EC%97%B4%EB%A6%B0%EC%9D%98%EC%9B%90,https://map.kakao.com/?q=%28%EC%9D%98%29%20%EC%97%B4%EB%A6%B0%EC%9D%98%EB%A3%8C%EC%9E%AC%EB%8B%A8%20%EC%9D%80%ED%8F%89%EC%97%B4%EB%A6%B0%EC%9D%98%EC%9B%90,37.6112912,126.9164939,Naver Map Search,2026-05-27 17:18:10,2등급,미인증,2026-02-23,1,최아란,최아란,1
123,(의) 열린의료재단 정다운의원,O,#N/A (),"전라남도 순천시 봉화3길 14, 4~5층 (조례동)",061-725-7565,전남,병원/의원,27,1,0,,https://map.naver.com/v5/search/%28%EC%9D%98%29%20%EC%97%B4%EB%A6%B0%EC%9D%98%EB%A3%8C%EC%9E%AC%EB%8B%A8%20%EC%A0%95%EB%8B%A4%EC%9A%B4%EC%9D%98%EC%9B%90,https://map.kakao.com/?q=%28%EC%9D%98%29%20%EC%97%B4%EB%A6%B0%EC%9D%98%EB%A3%8C%EC%9E%AC%EB%8B%A8%20%EC%A0%95%EB%8B%A4%EC%9A%B4%EC%9D%98%EC%9B%90,34.9632557,127.5199811,Naver Map Search,2026-05-27 17:18:10,2등급,미인증,2026-02-04,1,이균상,이균상,1
124,(의) 열린의료재단 혜화열린의원,O,#N/A (),"서울특별시 성북구 동소문로 125, 5~6층 (동선동4가)",929-2375,서울,병원/의원,35,1,0,,https://map.naver.com/v5/search/%28%EC%9D%98%29%20%EC%97%B4%EB%A6%B0%EC%9D%98%EB%A3%8C%EC%9E%AC%EB%8B%A8%20%ED%98%9C%ED%99%94%EC%97%B4%EB%A6%B0%EC%9D%98%EC%9B%90,https://map.kakao.com/?q=%28%EC%9D%98%29%20%EC%97%B4%EB%A6%B0%EC%9D%98%EB%A3%8C%EC%9E%AC%EB%8B%A8%20%ED%98%9C%ED%99%94%EC%97%B4%EB%A6%B0%EC%9D%98%EC%9B%90,37.5941649,127.0182308,Naver Map Search,2026-05-27 17:18:10,2등급,미인증,,0,,,0
125,(의)나사렛의료재단 나사렛국제병원,O,#N/A (),"인천광역시 연수구 먼우금로 98,  (동춘동)",032-899-9999,인천,병원/의원,25,1,0,,https://map.naver.com/v5/search/%28%EC%9D%98%29%EB%82%98%EC%82%AC%EB%A0%9B%EC%9D%98%EB%A3%8C%EC%9E%AC%EB%8B%A8%20%EB%82%98%EC%82%AC%EB%A0%9B%EA%B5%AD%EC%A0%9C%EB%B3%91%EC%9B%90,https://map.kakao.com/?q=%28%EC%9D%98%29%EB%82%98%EC%82%AC%EB%A0%9B%EC%9D%98%EB%A3%8C%EC%9E%AC%EB%8B%A8%20%EB%82%98%EC%82%AC%EB%A0%9B%EA%B5%AD%EC%A0%9C%EB%B3%91%EC%9B%90,37.407958,126.6704928,Naver Map Search,2026-05-27 17:18:10,2등급,미인증,2026-05-20,1,정의석,정의석,1
126,(의)열린의료재단 강남열린의원,O,#N/A (),"서울특별시 강남구 언주로 123, 3층 (도곡동, 개포한신아파트)",02-3454-0601,서울,병원/의원,20,1,0,,https://map.naver.com/v5/search/%28%EC%9D%98%29%EC%97%B4%EB%A6%B0%EC%9D%98%EB%A3%8C%EC%9E%AC%EB%8B%A8%20%EA%B0%95%EB%82%A8%EC%97%B4%EB%A6%B0%EC%9D%98%EC%9B%90,https://map.kakao.com/?q=%28%EC%9D%98%29%EC%97%B4%EB%A6%B0%EC%9D%98%EB%A3%8C%EC%9E%AC%EB%8B%A8%20%EA%B0%95%EB%82%A8%EC%97%B4%EB%A6%B0%EC%9D%98%EC%9B%90,37.4869601,127.0488528,Naver Map Search,2026-05-27 17:18:10,2등급,미인증,,0,,,0
127,(의)열린의료재단 구로열린의원,O,#N/A (),"서울특별시 구로구 구로중앙로 68, 208, 209, 210호 (구로동, 신안타워)",02-861-4658,서울,병원/의원,21,1,0,,https://map.naver.com/v5/search/%28%EC%9D%98%29%EC%97%B4%EB%A6%B0%EC%9D%98%EB%A3%8C%EC%9E%AC%EB%8B%A8%20%EA%B5%AC%EB%A1%9C%EC%97%B4%EB%A6%B0%EC%9D%98%EC%9B%90,https://map.kakao.com/?q=%28%EC%9D%98%29%EC%97%B4%EB%A6%B0%EC%9D%98%EB%A3%8C%EC%9E%AC%EB%8B%A8%20%EA%B5%AC%EB%A1%9C%EC%97%B4%EB%A6%B0%EC%9D%98%EC%9B%90,37.4958015,126.8887946,Naver Map Search,2026-05-27 17:18:10,2등급,미인증,2025-11-19,1,정혜원,정혜원,1
128,(의)열린의료재단 미아열린의원,O,#N/A (),"서울특별시 강북구 도봉로 213, 하당빌딩 3,4층 (미아동)",02-945-2305,서울,병원/의원,30,1,0,,https://map.naver.com/v5/search/%28%EC%9D%98%29%EC%97%B4%EB%A6%B0%EC%9D%98%EB%A3%8C%EC%9E%AC%EB%8B%A8%20%EB%AF%B8%EC%95%84%EC%97%B4%EB%A6%B0%EC%9D%98%EC%9B%90,https://map.kakao.com/?q=%28%EC%9D%98%29%EC%97%B4%EB%A6%B0%EC%9D%98%EB%A3%8C%EC%9E%AC%EB%8B%A8%20%EB%AF%B8%EC%95%84%EC%97%B4%EB%A6%B0%EC%9D%98%EC%9B%90,37.6275922,127.0252592,Naver Map Search,2026-05-27 17:18:10,2등급,미인증,2026-02-16,1,김윤정,김윤정,1
129,(의)열린의료재단 분당열린의원,O,#N/A (),"경기도 성남시 분당구 분당로53번길 22, 4층 (서현동, 블루홀빌딩)",031-708-9393,경기,병원/의원,24,1,0,,https://map.naver.com/v5/search/%28%EC%9D%98%29%EC%97%B4%EB%A6%B0%EC%9D%98%EB%A3%8C%EC%9E%AC%EB%8B%A8%20%EB%B6%84%EB%8B%B9%EC%97%B4%EB%A6%B0%EC%9D%98%EC%9B%90,https://map.kakao.com/?q=%28%EC%9D%98%29%EC%97%B4%EB%A6%B0%EC%9D%98%EB%A3%8C%EC%9E%AC%EB%8B%A8%20%EB%B6%84%EB%8B%B9%EC%97%B4%EB%A6%B0%EC%9D%98%EC%9B%90,37.3842675,127.1228552,Naver Map Search,2026-05-27 17:18:10,2등급,인증,2026-02-26,1,안재형,안재형,1
130,(재)예수의꽃동네유지재단 인곡자애병원,O,#N/A (),"충청북도 음성군 맹동면 꽃동네길 37-0,",043-879-0301,충북,병원/의원,8,1,0,,https://map.naver.com/v5/search/%28%EC%9E%AC%29%EC%98%88%EC%88%98%EC%9D%98%EA%BD%83%EB%8F%99%EB%84%A4%EC%9C%A0%EC%A7%80%EC%9E%AC%EB%8B%A8%20%EC%9D%B8%EA%B3%A1%EC%9E%90%EC%95%A0%EB%B3%91%EC%9B%90,https://map.kakao.com/?q=%28%EC%9E%AC%29%EC%98%88%EC%88%98%EC%9D%98%EA%BD%83%EB%8F%99%EB%84%A4%EC%9C%A0%EC%A7%80%EC%9E%AC%EB%8B%A8%20%EC%9D%B8%EA%B3%A1%EC%9E%90%EC%95%A0%EB%B3%91%EC%9B%90,36.941804,127.5776409,Naver Map Search,2026-05-27 17:18:10,2등급,미인증,,0,,,0
131,21C프라자내과의원,O,O,"경기도 성남시 수정구 수정로 106, 503호 (수진동)",031-721-3813,경기,병원/의원,22,1,0,,https://map.naver.com/v5/search/21C%ED%94%84%EB%9D%BC%EC%9E%90%EB%82%B4%EA%B3%BC%EC%9D%98%EC%9B%90,https://map.kakao.com/?q=21C%ED%94%84%EB%9D%BC%EC%9E%90%EB%82%B4%EA%B3%BC%EC%9D%98%EC%9B%90,37.4407268,127.1322097,Naver Map Search,2026-05-27 17:18:10,2등급,인증,2026-03-11,1,위경소,위경소,1
132,365경대연합내과의원,O,#N/A (),"대구광역시 수성구 들안로 274, 2,6층 (수성동3가)",053-741-7575,대구,병원/의원,30,1,0,,https://map.naver.com/v5/search/365%EA%B2%BD%EB%8C%80%EC%97%B0%ED%95%A9%EB%82%B4%EA%B3%BC%EC%9D%98%EC%9B%90,https://map.kakao.com/?q=365%EA%B2%BD%EB%8C%80%EC%97%B0%ED%95%A9%EB%82%B4%EA%B3%BC%EC%9D%98%EC%9B%90,35.8544871,128.6175544,Naver Map Search,2026-05-27 17:18:10,2등급,미인증,,0,,,0
133,365열린메디칼의원,O,#N/A (),"경기도 수원시 권선구 금곡로 202, e-SPACE CITY-1 (금곡동)",031-231-1119,경기,병원/의원,39,1,0,,https://map.naver.com/v5/search/365%EC%97%B4%EB%A6%B0%EB%A9%94%EB%94%94%EC%B9%BC%EC%9D%98%EC%9B%90,https://map.kakao.com/?q=365%EC%97%B4%EB%A6%B0%EB%A9%94%EB%94%94%EC%B9%BC%EC%9D%98%EC%9B%90,37.2734821,126.9526872,Naver Map Search,2026-05-27 17:18:10,2등급,미인증,2026-03-06,1,이희정,이희정,1
134,KS병원,O,X,"광주광역시 광산구 왕버들로 220,  (수완동)",062-975-9000,광주,병원/의원,26,1,0,,https://map.naver.com/v5/search/KS%EB%B3%91%EC%9B%90,https://map.kakao.com/?q=KS%EB%B3%91%EC%9B%90,35.1979238,126.8331484,Naver Map Search,2026-05-27 17:18:10,2등급,미인증,2026-05-12,1,김수인,김수인,1
135,가톨릭대학교 여의도성모병원,O,X,"서울특별시 영등포구 63로 10, 여의도성모병원 (여의도동)",1661-7575,서울,병원/의원,43,1,0,,https://map.naver.com/v5/search/%EA%B0%80%ED%86%A8%EB%A6%AD%EB%8C%80%ED%95%99%EA%B5%90%20%EC%97%AC%EC%9D%98%EB%8F%84%EC%84%B1%EB%AA%A8%EB%B3%91%EC%9B%90,https://map.kakao.com/?q=%EA%B0%80%ED%86%A8%EB%A6%AD%EB%8C%80%ED%95%99%EA%B5%90%20%EC%97%AC%EC%9D%98%EB%8F%84%EC%84%B1%EB%AA%A8%EB%B3%91%EC%9B%90,37.5183253,126.9367517,Naver Map Search,2026-05-27 17:18:10,2등급,미인증,2026-03-17,3,"정성진,고은실,이소영","정성진,고은실,이소영",1
136,가톨릭대학교의정부성모병원,O,#N/A (),"경기도 의정부시 천보로 271, 의정부성모병원 (금오동)",1661-7500,경기,병원/의원,51,1,0,,https://map.naver.com/v5/search/%EA%B0%80%ED%86%A8%EB%A6%AD%EB%8C%80%ED%95%99%EA%B5%90%EC%9D%98%EC%A0%95%EB%B6%80%EC%84%B1%EB%AA%A8%EB%B3%91%EC%9B%90,https://map.kakao.com/?q=%EA%B0%80%ED%86%A8%EB%A6%AD%EB%8C%80%ED%95%99%EA%B5%90%EC%9D%98%EC%A0%95%EB%B6%80%EC%84%B1%EB%AA%A8%EB%B3%91%EC%9B%90,37.7587045,127.0777625,Naver Map Search,2026-05-27 17:18:10,2등급,인증,2026-03-31,4,"윤선애,김영수,홍수연,박창민","윤선애,김영수,홍수연,박창민",1
137,가톨릭서부내과의원,O,X,"대구광역시 달서구 월배로 473, 3층 (송현동)",053-477-8275,대구,병원/의원,40,1,0,,https://map.naver.com/v5/search/%EA%B0%80%ED%86%A8%EB%A6%AD%EC%84%9C%EB%B6%80%EB%82%B4%EA%B3%BC%EC%9D%98%EC%9B%90,https://map.kakao.com/?q=%EA%B0%80%ED%86%A8%EB%A6%AD%EC%84%9C%EB%B6%80%EB%82%B4%EA%B3%BC%EC%9D%98%EC%9B%90,35.8354726,128.5556116,Naver Map Search,2026-05-27 17:18:10,2등급,미인증,2026-03-13,2,"이우현,홍창우","이우현,홍창우",1
138,가톨릭연합내과의원,O,#N/A (),"대구광역시 달서구 월배로 168, 아보스타워 5,6층 (상인동)",053-477-0808,대구,병원/의원,49,1,0,,https://map.naver.com/v5/search/%EA%B0%80%ED%86%A8%EB%A6%AD%EC%97%B0%ED%95%A9%EB%82%B4%EA%B3%BC%EC%9D%98%EC%9B%90,https://map.kakao.com/?q=%EA%B0%80%ED%86%A8%EB%A6%AD%EC%97%B0%ED%95%A9%EB%82%B4%EA%B3%BC%EC%9D%98%EC%9B%90,35.8167088,128.5323143,Naver Map Search,2026-05-27 17:18:10,2등급,인증,2026-03-11,2,"김홍익,강건우","김홍익,강건우",1
139,강남병원,O,#N/A (),"경기도 용인시 기흥구 중부대로 411, 강남병원 (신갈동)",031-300-0114,경기,병원/의원,76,1,0,,https://map.naver.com/v5/search/%EA%B0%95%EB%82%A8%EB%B3%91%EC%9B%90,https://map.kakao.com/?q=%EA%B0%95%EB%82%A8%EB%B3%91%EC%9B%90,37.2737515,127.1115072,Naver Map Search,2026-05-27 17:18:10,2등급,미인증,,0,,,0
140,강남요양병원,O,#N/A (),"대구광역시 동구 동촌로 207, (방촌동, 강남병원)",053-983-4300,대구,병원/의원,21,1,0,,https://map.naver.com/v5/search/%EA%B0%95%EB%82%A8%EC%9A%94%EC%96%91%EB%B3%91%EC%9B%90,https://map.kakao.com/?q=%EA%B0%95%EB%82%A8%EC%9A%94%EC%96%91%EB%B3%91%EC%9B%90,37.4993952,127.0120817,Naver Map Search,2026-05-27 17:18:10,2등급,미인증,,0,,,0
141,강동맑은내과의원,O,X,"서울특별시 강동구 동남로73길 13, 4층 (명일동)",02-481-5007,서울,병원/의원,27,1,0,,https://map.naver.com/v5/search/%EA%B0%95%EB%8F%99%EB%A7%91%EC%9D%80%EB%82%B4%EA%B3%BC%EC%9D%98%EC%9B%90,https://map.kakao.com/?q=%EA%B0%95%EB%8F%99%EB%A7%91%EC%9D%80%EB%82%B4%EA%B3%BC%EC%9D%98%EC%9B%90,37.5527561,127.1554486,Naver Map Search,2026-05-27 17:18:10,2등급,미인증,2025-12-12,1,송세빈,송세빈,1
142,강미정연합내과의원,O,#N/A (),"대구광역시 수성구 달구벌대로469길 6, 더범어스퀘어 4~5층 (수성동4가)",053-753-0024,대구,병원/의원,60,1,0,,https://map.naver.com/v5/search/%EA%B0%95%EB%AF%B8%EC%A0%95%EC%97%B0%ED%95%A9%EB%82%B4%EA%B3%BC%EC%9D%98%EC%9B%90,https://map.kakao.com/?q=%EA%B0%95%EB%AF%B8%EC%A0%95%EC%97%B0%ED%95%A9%EB%82%B4%EA%B3%BC%EC%9D%98%EC%9B%90,35.8600244,128.6197052,Naver Map Search,2026-05-27 17:18:10,2등급,인증,2025-06-03,1,강미정,강미정,1
143,강선우내과의원,O,O,"부산광역시 부산진구 가야대로 451, 개금메디칼빌딩 501,503호 (개금동)",051-715-5700,부산,병원/의원,30,1,0,,https://map.naver.com/v5/search/%EA%B0%95%EC%84%A0%EC%9A%B0%EB%82%B4%EA%B3%BC%EC%9D%98%EC%9B%90,https://map.kakao.com/?q=%EA%B0%95%EC%84%A0%EC%9A%B0%EB%82%B4%EA%B3%BC%EC%9D%98%EC%9B%90,35.1535618,129.0215342,Naver Map Search,2026-05-27 17:18:10,2등급,인증,2026-01-02,1,강선우,강선우,1
144,강원특별자치도삼척의료원,O,#N/A (),"강원특별자치도 삼척시 오십천로 473-0, 강원특별자치도삼척의료원",033-572-1141,강원,병원/의원,18,1,0,,https://map.naver.com/v5/search/%EA%B0%95%EC%9B%90%ED%8A%B9%EB%B3%84%EC%9E%90%EC%B9%98%EB%8F%84%EC%82%BC%EC%B2%99%EC%9D%98%EB%A3%8C%EC%9B%90,https://map.kakao.com/?q=%EA%B0%95%EC%9B%90%ED%8A%B9%EB%B3%84%EC%9E%90%EC%B9%98%EB%8F%84%EC%82%BC%EC%B2%99%EC%9D%98%EB%A3%8C%EC%9B%90,37.4403018,129.1638017,Naver Map Search,2026-05-27 17:18:10,2등급,미인증,,0,,,0
145,검단탑병원,O,X,"인천광역시 서구 청마로19번길 5, (당하동)",032-590-0114,인천,병원/의원,35,1,0,,https://map.naver.com/v5/search/%EA%B2%80%EB%8B%A8%ED%83%91%EB%B3%91%EC%9B%90,https://map.kakao.com/?q=%EA%B2%80%EB%8B%A8%ED%83%91%EB%B3%91%EC%9B%90,37.5924835,126.6711792,Naver Map Search,2026-05-27 17:18:10,2등급,미인증,2026-03-30,2,"성지윤,조원지","성지윤,조원지",1
146,경기도립노인전문 평택병원,O,#N/A (),"경기도 평택시 브레인시티로 89, (도일동)",031-669-9977,경기,병원/의원,14,1,0,,https://map.naver.com/v5/search/%EA%B2%BD%EA%B8%B0%EB%8F%84%EB%A6%BD%EB%85%B8%EC%9D%B8%EC%A0%84%EB%AC%B8%20%ED%8F%89%ED%83%9D%EB%B3%91%EC%9B%90,https://map.kakao.com/?q=%EA%B2%BD%EA%B8%B0%EB%8F%84%EB%A6%BD%EB%85%B8%EC%9D%B8%EC%A0%84%EB%AC%B8%20%ED%8F%89%ED%83%9D%EB%B3%91%EC%9B%90,37.0538301,127.0976642,Naver Map Search,2026-05-27 17:18:10,2등급,미인증,,0,,,0
147,경기도립노인전문시흥병원,O,#N/A (),"경기도 시흥시 하중로 285, 경기도립 노인전문 시흥병원 (광석동)",031-500-7100,경기,병원/의원,27,1,0,,https://map.naver.com/v5/search/%EA%B2%BD%EA%B8%B0%EB%8F%84%EB%A6%BD%EB%85%B8%EC%9D%B8%EC%A0%84%EB%AC%B8%EC%8B%9C%ED%9D%A5%EB%B3%91%EC%9B%90,https://map.kakao.com/?q=%EA%B2%BD%EA%B8%B0%EB%8F%84%EB%A6%BD%EB%85%B8%EC%9D%B8%EC%A0%84%EB%AC%B8%EC%8B%9C%ED%9D%A5%EB%B3%91%EC%9B%90,37.386257,126.8071271,Naver Map Search,2026-05-27 17:18:10,2등급,미인증,2026-04-01,1,정석민,정석민,1
148,경대수내과의원,O,#N/A (),"대구광역시 북구 동천로23길 30-23, 3층 301~304호 (동천동)",053-326-0099,대구,병원/의원,50,1,0,,https://map.naver.com/v5/search/%EA%B2%BD%EB%8C%80%EC%88%98%EB%82%B4%EA%B3%BC%EC%9D%98%EC%9B%90,https://map.kakao.com/?q=%EA%B2%BD%EB%8C%80%EC%88%98%EB%82%B4%EA%B3%BC%EC%9D%98%EC%9B%90,35.9439684,128.5570746,Naver Map Search,2026-05-27 17:18:10,2등급,미인증,2026-03-13,1,김민정,김민정,1
149,경산혜인내과의원,O,#N/A (),"경상북도 경산시 강변서로 141, 3~4층 (사정동)",053-817-2455,경북,병원/의원,26,1,0,,https://map.naver.com/v5/search/%EA%B2%BD%EC%82%B0%ED%98%9C%EC%9D%B8%EB%82%B4%EA%B3%BC%EC%9D%98%EC%9B%90,https://map.kakao.com/?q=%EA%B2%BD%EC%82%B0%ED%98%9C%EC%9D%B8%EB%82%B4%EA%B3%BC%EC%9D%98%EC%9B%90,35.8203117,128.7306354,Naver Map Search,2026-05-27 17:18:10,2등급,미인증,,0,,,0
150,경상북도김천의료원,O,#N/A (),"경상북도 김천시 모암길 24,  (모암동)",054-432-8901,경북,병원/의원,23,1,0,,https://map.naver.com/v5/search/%EA%B2%BD%EC%83%81%EB%B6%81%EB%8F%84%EA%B9%80%EC%B2%9C%EC%9D%98%EB%A3%8C%EC%9B%90,https://map.kakao.com/?q=%EA%B2%BD%EC%83%81%EB%B6%81%EB%8F%84%EA%B9%80%EC%B2%9C%EC%9D%98%EB%A3%8C%EC%9B%90,36.1227232,128.1264391,Naver Map Search,2026-05-27 17:18:10,2등급,인증,2026-01-05,1,서준혁,서준혁,1
151,경희임내과의원,O,O,"서울특별시 동대문구 홍릉로 28, 성일빌딩 1,5층 (청량리동)",02-960-1080,서울,병원/의원,44,1,0,,https://map.naver.com/v5/search/%EA%B2%BD%ED%9D%AC%EC%9E%84%EB%82%B4%EA%B3%BC%EC%9D%98%EC%9B%90,https://map.kakao.com/?q=%EA%B2%BD%ED%9D%AC%EC%9E%84%EB%82%B4%EA%B3%BC%EC%9D%98%EC%9B%90,37.5828296,127.0446981,Naver Map Search,2026-05-27 17:18:10,2등급,인증,2025-12-29,1,임천규,"임천규,임형석",1
152,고려수내과의원,O,#N/A (),"서울특별시 종로구 종로 328, 동대문빌딩 4,5층 (창신동)",02-766-0601,서울,병원/의원,29,1,0,,https://map.naver.com/v5/search/%EA%B3%A0%EB%A0%A4%EC%88%98%EB%82%B4%EA%B3%BC%EC%9D%98%EC%9B%90,https://map.kakao.com/?q=%EA%B3%A0%EB%A0%A4%EC%88%98%EB%82%B4%EA%B3%BC%EC%9D%98%EC%9B%90,37.5723812,127.0142974,Naver Map Search,2026-05-27 17:18:10,2등급,미인증,2026-03-25,1,황태연,황태연,1
153,곽상혁내과의원,O,O,"대전광역시 서구 계룡로 650, 청포빌딩 5층 (용문동)",042-533-0875,대전,병원/의원,18,1,0,,https://map.naver.com/v5/search/%EA%B3%BD%EC%83%81%ED%98%81%EB%82%B4%EA%B3%BC%EC%9D%98%EC%9B%90,https://map.kakao.com/?q=%EA%B3%BD%EC%83%81%ED%98%81%EB%82%B4%EA%B3%BC%EC%9D%98%EC%9B%90,36.3375969,127.3935609,Naver Map Search,2026-05-27 17:18:10,2등급,인증,2026-04-01,1,곽상혁,곽상혁,1
154,관악플러스내과의원,O,#N/A (),"서울특별시 관악구 난곡로 299, 5,6층 (신림동, 성안빌딩)",02-868-4488,서울,병원/의원,26,1,0,,https://map.naver.com/v5/search/%EA%B4%80%EC%95%85%ED%94%8C%EB%9F%AC%EC%8A%A4%EB%82%B4%EA%B3%BC%EC%9D%98%EC%9B%90,https://map.kakao.com/?q=%EA%B4%80%EC%95%85%ED%94%8C%EB%9F%AC%EC%8A%A4%EB%82%B4%EA%B3%BC%EC%9D%98%EC%9B%90,37.4806971,126.9143717,Naver Map Search,2026-05-27 17:18:10,2등급,미인증,2026-03-03,1,김재욱,김재욱,1
155,광명성애병원,O,X,"경기도 광명시 디지털로 36, 광명성애병원 (철산동)",02-2680-7114,경기,병원/의원,42,1,0,,https://map.naver.com/v5/search/%EA%B4%91%EB%AA%85%EC%84%B1%EC%95%A0%EB%B3%91%EC%9B%90,https://map.kakao.com/?q=%EA%B4%91%EB%AA%85%EC%84%B1%EC%95%A0%EB%B3%91%EC%9B%90,37.4736659,126.8713502,Naver Map Search,2026-05-27 17:18:10,2등급,미인증,2025-12-05,2,"박상원,김희서","박상원,김희서",1
156,광주기독병원,O,#N/A (),"광주광역시 남구 양림로 37,  (양림동)",062-650-5000,광주,병원/의원,26,1,0,,https://map.naver.com/v5/search/%EA%B4%91%EC%A3%BC%EA%B8%B0%EB%8F%85%EB%B3%91%EC%9B%90,https://map.kakao.com/?q=%EA%B4%91%EC%A3%BC%EA%B8%B0%EB%8F%85%EB%B3%91%EC%9B%90,35.136665,126.9118749,Naver Map Search,2026-05-27 17:18:10,2등급,미인증,,0,,,0
157,광주보훈병원,O,#N/A (),"광주광역시 광산구 첨단월봉로 99,  (산월동)",062-602-6114,광주,병원/의원,34,1,0,,https://map.naver.com/v5/search/%EA%B4%91%EC%A3%BC%EB%B3%B4%ED%9B%88%EB%B3%91%EC%9B%90,https://map.kakao.com/?q=%EA%B4%91%EC%A3%BC%EB%B3%B4%ED%9B%88%EB%B3%91%EC%9B%90,35.2079032,126.8496719,Naver Map Search,2026-05-27 17:18:10,2등급,미인증,,0,,,0
158,구완서내과의원,O,X,"경기도 수원시 팔달구 중부대로 94, 성웅빌딩 (인계동)",031-222-5257,경기,병원/의원,53,1,0,,https://map.naver.com/v5/search/%EA%B5%AC%EC%99%84%EC%84%9C%EB%82%B4%EA%B3%BC%EC%9D%98%EC%9B%90,https://map.kakao.com/?q=%EA%B5%AC%EC%99%84%EC%84%9C%EB%82%B4%EA%B3%BC%EC%9D%98%EC%9B%90,37.2765475,127.0269673,Naver Map Search,2026-05-27 17:18:10,2등급,미인증,2026-05-05,2,"구완서,구은희","구완서,구은희",1
159,구철회내과의원,O,O,"강원특별자치도 춘천시 춘천로 188, (효자동)",033-244-3500,강원,병원/의원,31,1,0,,https://map.naver.com/v5/search/%EA%B5%AC%EC%B2%A0%ED%9A%8C%EB%82%B4%EA%B3%BC%EC%9D%98%EC%9B%90,https://map.kakao.com/?q=%EA%B5%AC%EC%B2%A0%ED%9A%8C%EB%82%B4%EA%B3%BC%EC%9D%98%EC%9B%90,37.8762547,127.7352717,Naver Map Search,2026-05-27 17:18:10,2등급,인증,2026-03-09,1,구철회,구철회,1
160,국립중앙의료원,O,X,"서울특별시 중구 을지로 245, 국립중앙의료원 (을지로6가)",02-2260-7114,서울,병원/의원,47,1,0,,https://map.naver.com/v5/search/%EA%B5%AD%EB%A6%BD%EC%A4%91%EC%95%99%EC%9D%98%EB%A3%8C%EC%9B%90,https://map.kakao.com/?q=%EA%B5%AD%EB%A6%BD%EC%A4%91%EC%95%99%EC%9D%98%EB%A3%8C%EC%9B%90,37.5672138,127.005671,Naver Map Search,2026-05-27 17:18:10,2등급,미인증,2026-03-23,3,"차란희,안규리,류지영","차란희,한미연,안규리,류지영,문종주",1
161,국제나은병원,O,#N/A (),"경기도 안양시 만안구 안양로223번길 5, (안양동)",1670-7575,경기,병원/의원,33,1,0,,https://map.naver.com/v5/search/%EA%B5%AD%EC%A0%9C%EB%82%98%EC%9D%80%EB%B3%91%EC%9B%90,https://map.kakao.com/?q=%EA%B5%AD%EC%A0%9C%EB%82%98%EC%9D%80%EB%B3%91%EC%9B%90,37.392901,126.9257149,Naver Map Search,2026-05-27 17:18:10,2등급,미인증,2026-03-16,1,김다래,김다래,1
162,권혁호내과의원,O,X,"경기도 수원시 팔달구 권광로 354, (우만동)",031-236-8770,경기,병원/의원,71,1,0,,https://map.naver.com/v5/search/%EA%B6%8C%ED%98%81%ED%98%B8%EB%82%B4%EA%B3%BC%EC%9D%98%EC%9B%90,https://map.kakao.com/?q=%EA%B6%8C%ED%98%81%ED%98%B8%EB%82%B4%EA%B3%BC%EC%9D%98%EC%9B%90,37.2786669,127.0380589,Naver Map Search,2026-05-27 17:18:10,2등급,미인증,2025-06-25,4,"권혁호,김균영,김가영,장우진","권혁호,김민수,김균영,김가영,장우진",1
163,근로복지공단안산병원,O,#N/A (),"경기도 안산시 상록구 구룡로 87, 근로복지공단안산병원 (일동)",031-500-1114,경기,병원/의원,25,1,0,,https://map.naver.com/v5/search/%EA%B7%BC%EB%A1%9C%EB%B3%B5%EC%A7%80%EA%B3%B5%EB%8B%A8%EC%95%88%EC%82%B0%EB%B3%91%EC%9B%90,https://map.kakao.com/?q=%EA%B7%BC%EB%A1%9C%EB%B3%B5%EC%A7%80%EA%B3%B5%EB%8B%A8%EC%95%88%EC%82%B0%EB%B3%91%EC%9B%90,37.3167269,126.874139,Naver Map Search,2026-05-27 17:18:10,2등급,미인증,2025-10-13,1,이한민,이한민,1
164,금천주내과의원,O,X,"서울특별시 금천구 시흥대로73길 67, 엠메디컬타워 3층 303~307호 (시흥동)",02-803-0222,서울,병원/의원,25,1,0,,https://map.naver.com/v5/search/%EA%B8%88%EC%B2%9C%EC%A3%BC%EB%82%B4%EA%B3%BC%EC%9D%98%EC%9B%90,https://map.kakao.com/?q=%EA%B8%88%EC%B2%9C%EC%A3%BC%EB%82%B4%EA%B3%BC%EC%9D%98%EC%9B%90,37.4559426,126.8957474,Naver Map Search,2026-05-27 17:18:10,2등급,미인증,2026-01-12,1,주우철,주우철,1
165,김대중내과의원,O,O,"서울특별시 강남구 광평로 280, 로즈데일오피스텔 2층 202-1,201호 (수서동)",02-459-3441,서울,병원/의원,38,1,0,,https://map.naver.com/v5/search/%EA%B9%80%EB%8C%80%EC%A4%91%EB%82%B4%EA%B3%BC%EC%9D%98%EC%9B%90,https://map.kakao.com/?q=%EA%B9%80%EB%8C%80%EC%A4%91%EB%82%B4%EA%B3%BC%EC%9D%98%EC%9B%90,37.4873192,127.103108,Naver Map Search,2026-05-27 17:18:10,2등급,인증,2026-01-06,2,"김대중,부효진","김대중,부효진",1
166,김성남내과의원,O,O,"서울특별시 양천구 목동동로 435, 305~309호 (목동, 화성프라자)",02-2655-2500,서울,병원/의원,20,1,0,,https://map.naver.com/v5/search/%EA%B9%80%EC%84%B1%EB%82%A8%EB%82%B4%EA%B3%BC%EC%9D%98%EC%9B%90,https://map.kakao.com/?q=%EA%B9%80%EC%84%B1%EB%82%A8%EB%82%B4%EA%B3%BC%EC%9D%98%EC%9B%90,37.5373898,126.8848736,Naver Map Search,2026-05-27 17:18:10,2등급,인증,2026-03-06,1,김성남,김성남,1
167,김성진내과의원,O,#N/A (),"경기도 군포시 고산로 693, 하나로빌딩 301, 302호 (산본동)",031-347-4800,경기,병원/의원,32,1,0,,https://map.naver.com/v5/search/%EA%B9%80%EC%84%B1%EC%A7%84%EB%82%B4%EA%B3%BC%EC%9D%98%EC%9B%90,https://map.kakao.com/?q=%EA%B9%80%EC%84%B1%EC%A7%84%EB%82%B4%EA%B3%BC%EC%9D%98%EC%9B%90,36.6798086,126.846469,Naver Map Search,2026-05-27 17:18:10,2등급,미인증,2026-01-12,1,김성진,김성진,1
168,김앤박내과의원,O,#N/A (),"충청북도 청주시 흥덕구 복대로 179, 2층4층 (복대동)",043-233-0429,충북,병원/의원,30,1,0,,https://map.naver.com/v5/search/%EA%B9%80%EC%95%A4%EB%B0%95%EB%82%B4%EA%B3%BC%EC%9D%98%EC%9B%90,https://map.kakao.com/?q=%EA%B9%80%EC%95%A4%EB%B0%95%EB%82%B4%EA%B3%BC%EC%9D%98%EC%9B%90,37.6530591,127.0613426,Naver Map Search,2026-05-27 17:18:10,2등급,인증,2026-01-16,1,박경식,"박경식,김계영",1
169,김영옥성모내과의원,O,#N/A (),"경기도 의정부시 천보로 64, 그린타워 3, 4층 (민락동)",031-851-0341,경기,병원/의원,40,1,0,,https://map.naver.com/v5/search/%EA%B9%80%EC%98%81%EC%98%A5%EC%84%B1%EB%AA%A8%EB%82%B4%EA%B3%BC%EC%9D%98%EC%9B%90,https://map.kakao.com/?q=%EA%B9%80%EC%98%81%EC%98%A5%EC%84%B1%EB%AA%A8%EB%82%B4%EA%B3%BC%EC%9D%98%EC%9B%90,37.7452404,127.0945298,Naver Map Search,2026-05-27 17:18:10,2등급,인증,2025-08-06,1,김영옥,김영옥,1
170,김용수내과의원,O,O,"서울특별시 서초구 방배로 111, 근복빌딩 5층 (방배동)",02-6245-7070,서울,병원/의원,31,1,0,,https://map.naver.com/v5/search/%EA%B9%80%EC%9A%A9%EC%88%98%EB%82%B4%EA%B3%BC%EC%9D%98%EC%9B%90,https://map.kakao.com/?q=%EA%B9%80%EC%9A%A9%EC%88%98%EB%82%B4%EA%B3%BC%EC%9D%98%EC%9B%90,37.4839058,126.9956497,Naver Map Search,2026-05-27 17:18:10,2등급,인증,2026-03-09,1,김용수,김용수,1
171,김지웅내과의원,O,#N/A (),"경상남도 양산시 북정로 59-1, 메디앤타임빌딩 2, 3층 (북정동)",055-785-2222,경남,병원/의원,18,1,0,,https://map.naver.com/v5/search/%EA%B9%80%EC%A7%80%EC%9B%85%EB%82%B4%EA%B3%BC%EC%9D%98%EC%9B%90,https://map.kakao.com/?q=%EA%B9%80%EC%A7%80%EC%9B%85%EB%82%B4%EA%B3%BC%EC%9D%98%EC%9B%90,35.3591693,129.0469372,Naver Map Search,2026-05-27 17:18:10,2등급,미인증,,0,,,0
172,김지환내과의원,O,X,"부산광역시 동래구 명륜로 161, 4층 (명륜동)",051-710-0900,부산,병원/의원,27,1,0,,https://map.naver.com/v5/search/%EA%B9%80%EC%A7%80%ED%99%98%EB%82%B4%EA%B3%BC%EC%9D%98%EC%9B%90,https://map.kakao.com/?q=%EA%B9%80%EC%A7%80%ED%99%98%EB%82%B4%EA%B3%BC%EC%9D%98%EC%9B%90,35.2082526,129.0818921,Naver Map Search,2026-05-27 17:18:10,2등급,미인증,2026-03-16,0,,김지환,0
173,김철수내과의원,O,O,"경기도 시흥시 능곡번영길 30, 센텀시티 210~213, 307~313호 (능곡동)",031-503-0872,경기,병원/의원,35,1,0,,https://map.naver.com/v5/search/%EA%B9%80%EC%B2%A0%EC%88%98%EB%82%B4%EA%B3%BC%EC%9D%98%EC%9B%90,https://map.kakao.com/?q=%EA%B9%80%EC%B2%A0%EC%88%98%EB%82%B4%EA%B3%BC%EC%9D%98%EC%9B%90,37.3702183,126.8066709,Naver Map Search,2026-05-27 17:18:10,2등급,인증,2026-03-07,2,"김철수,오수현","김철수,오수현",1
174,김홍열내과의원,O,X,"서울특별시 금천구 금하로 651, 2,3층 (시흥동)",805-6124,서울,병원/의원,22,1,0,,https://map.naver.com/v5/search/%EA%B9%80%ED%99%8D%EC%97%B4%EB%82%B4%EA%B3%BC%EC%9D%98%EC%9B%90,https://map.kakao.com/?q=%EA%B9%80%ED%99%8D%EC%97%B4%EB%82%B4%EA%B3%BC%EC%9D%98%EC%9B%90,37.4540926,126.9033823,Naver Map Search,2026-05-27 17:18:10,2등급,미인증,2026-01-19,1,김홍열,김홍열,1
175,꿈의숲요양병원,O,#N/A (),"서울특별시 강북구 월계로 183, (번동)",02-987-9988,서울,병원/의원,23,1,0,,https://map.naver.com/v5/search/%EA%BF%88%EC%9D%98%EC%88%B2%EC%9A%94%EC%96%91%EB%B3%91%EC%9B%90,https://map.kakao.com/?q=%EA%BF%88%EC%9D%98%EC%88%B2%EC%9A%94%EC%96%91%EB%B3%91%EC%9B%90,37.6205782,127.0449372,Naver Map Search,2026-05-27 17:18:10,2등급,미인증,,0,,,0
176,남서울내과의원,O,O,"서울특별시 노원구 노해로 488, 4층 (상계동, 근호빌딩)",02-938-0875,서울,병원/의원,38,1,0,,https://map.naver.com/v5/search/%EB%82%A8%EC%84%9C%EC%9A%B8%EB%82%B4%EA%B3%BC%EC%9D%98%EC%9B%90,https://map.kakao.com/?q=%EB%82%A8%EC%84%9C%EC%9A%B8%EB%82%B4%EA%B3%BC%EC%9D%98%EC%9B%90,37.6543238,127.0621841,Naver Map Search,2026-05-27 17:18:10,2등급,인증,2026-03-31,2,"이중건,김유미","이중건,김유미",1
177,남악온누리내과의원,O,#N/A (),"전라남도 무안군 삼향읍 후광대로 242, 2, 3층 (전남개발빌딩)",061-281-3651,전남,병원/의원,22,1,0,,https://map.naver.com/v5/search/%EB%82%A8%EC%95%85%EC%98%A8%EB%88%84%EB%A6%AC%EB%82%B4%EA%B3%BC%EC%9D%98%EC%9B%90,https://map.kakao.com/?q=%EB%82%A8%EC%95%85%EC%98%A8%EB%88%84%EB%A6%AC%EB%82%B4%EA%B3%BC%EC%9D%98%EC%9B%90,34.813971,126.4581263,Naver Map Search,2026-05-27 17:18:10,2등급,인증,2026-03-07,0,,김현수,0
178,내사랑내과의원,O,#N/A (),"경기도 부천시 소사구 경인로 201, (심곡본동)",032-666-8111,경기,병원/의원,25,1,0,,https://map.naver.com/v5/search/%EB%82%B4%EC%82%AC%EB%9E%91%EB%82%B4%EA%B3%BC%EC%9D%98%EC%9B%90,https://map.kakao.com/?q=%EB%82%B4%EC%82%AC%EB%9E%91%EB%82%B4%EA%B3%BC%EC%9D%98%EC%9B%90,35.1769359,129.0860253,Naver Map Search,2026-05-27 17:18:10,2등급,미인증,,0,,,0
179,노벨플러스내과의원,O,#N/A (),"광주광역시 동구 제봉로222번길 13, 3~4층 (대인동)",062-233-1502,광주,병원/의원,27,1,0,,https://map.naver.com/v5/search/%EB%85%B8%EB%B2%A8%ED%94%8C%EB%9F%AC%EC%8A%A4%EB%82%B4%EA%B3%BC%EC%9D%98%EC%9B%90,https://map.kakao.com/?q=%EB%85%B8%EB%B2%A8%ED%94%8C%EB%9F%AC%EC%8A%A4%EB%82%B4%EA%B3%BC%EC%9D%98%EC%9B%90,35.1558958,126.9144529,Naver Map Search,2026-05-27 17:18:10,2등급,미인증,2025-10-30,2,"표성봉,김옥기","표성봉,김옥기",1
180,노원을지대학교병원,O,O,"서울특별시 노원구 한글비석로 68, 을지병원 (하계동)",02-970-8000,서울,병원/의원,50,1,0,,https://map.naver.com/v5/search/%EB%85%B8%EC%9B%90%EC%9D%84%EC%A7%80%EB%8C%80%ED%95%99%EA%B5%90%EB%B3%91%EC%9B%90,https://map.kakao.com/?q=%EB%85%B8%EC%9B%90%EC%9D%84%EC%A7%80%EB%8C%80%ED%95%99%EA%B5%90%EB%B3%91%EC%9B%90,37.6364793,127.0699354,Naver Map Search,2026-05-27 17:18:10,2등급,인증,2026-03-20,3,"이소영,김정순,박주언","이소영,김정순,박주언",1
181,노원이서진내과의원,O,#N/A (),"서울특별시 노원구 월계로 334, 2층 203,204,205호 (월계동, 그랑디오피스텔)",942-8275,서울,병원/의원,25,1,0,,https://map.naver.com/v5/search/%EB%85%B8%EC%9B%90%EC%9D%B4%EC%84%9C%EC%A7%84%EB%82%B4%EA%B3%BC%EC%9D%98%EC%9B%90,https://map.kakao.com/?q=%EB%85%B8%EC%9B%90%EC%9D%B4%EC%84%9C%EC%A7%84%EB%82%B4%EA%B3%BC%EC%9D%98%EC%9B%90,37.6289136,127.0576448,Naver Map Search,2026-05-27 17:18:10,2등급,미인증,2026-02-25,1,이서진,이서진,1
182,녹색병원,O,X,"서울특별시 중랑구 사가정로49길 53, (면목동)",02-490-2000,서울,병원/의원,24,1,0,,https://map.naver.com/v5/search/%EB%85%B9%EC%83%89%EB%B3%91%EC%9B%90,https://map.kakao.com/?q=%EB%85%B9%EC%83%89%EB%B3%91%EC%9B%90,37.5835731,127.0860738,Naver Map Search,2026-05-27 17:18:10,2등급,미인증,2026-02-05,1,김미정,김미정,1
183,늘편한내과의원,O,#N/A (),"전북특별자치도 전주시 완산구 장승배기로 208, 3층 (평화동1가)",063-284-2600,전북,병원/의원,39,1,0,,https://map.naver.com/v5/search/%EB%8A%98%ED%8E%B8%ED%95%9C%EB%82%B4%EA%B3%BC%EC%9D%98%EC%9B%90,https://map.kakao.com/?q=%EB%8A%98%ED%8E%B8%ED%95%9C%EB%82%B4%EA%B3%BC%EC%9D%98%EC%9B%90,37.5248028,127.1346966,Naver Map Search,2026-05-27 17:18:10,2등급,미인증,2026-01-27,1,한민지,한민지,1
184,늘푸른내과의원,O,#N/A (),"서울특별시 강서구 강서로 380, 세민빌딩 4,5층 (등촌동)",02-3661-7533,서울,병원/의원,37,1,0,,https://map.naver.com/v5/search/%EB%8A%98%ED%91%B8%EB%A5%B8%EB%82%B4%EA%B3%BC%EC%9D%98%EC%9B%90,https://map.kakao.com/?q=%EB%8A%98%ED%91%B8%EB%A5%B8%EB%82%B4%EA%B3%BC%EC%9D%98%EC%9B%90,37.559483,126.8388752,Naver Map Search,2026-05-27 17:18:10,2등급,미인증,2026-03-31,1,박지윤,박지윤,1
185,다산수내과의원,O,X,"경기도 남양주시 다산중앙로123번길 13, 3층 (다산동)",031-553-5455,경기,병원/의원,32,1,0,,https://map.naver.com/v5/search/%EB%8B%A4%EC%82%B0%EC%88%98%EB%82%B4%EA%B3%BC%EC%9D%98%EC%9B%90,https://map.kakao.com/?q=%EB%8B%A4%EC%82%B0%EC%88%98%EB%82%B4%EA%B3%BC%EC%9D%98%EC%9B%90,37.6235333,127.1519389,Naver Map Search,2026-05-27 17:18:10,2등급,미인증,2026-03-23,1,김은영,김은영,1
186,당신내과의원,O,#N/A (),"경상북도 포항시 북구 장량로 160, 401호 (양덕동)",054-232-0356,경북,병원/의원,48,1,0,,https://map.naver.com/v5/search/%EB%8B%B9%EC%8B%A0%EB%82%B4%EA%B3%BC%EC%9D%98%EC%9B%90,https://map.kakao.com/?q=%EB%8B%B9%EC%8B%A0%EB%82%B4%EA%B3%BC%EC%9D%98%EC%9B%90,36.0815093,129.3979461,Naver Map Search,2026-05-27 17:18:10,2등급,미인증,2025-11-14,1,김준섭,"김준섭,하원철",1
187,대구연세요양병원,O,#N/A (),"대구광역시 서구 북비산로 156, (평리동)",053-558-1001,대구,병원/의원,24,1,0,,https://map.naver.com/v5/search/%EB%8C%80%EA%B5%AC%EC%97%B0%EC%84%B8%EC%9A%94%EC%96%91%EB%B3%91%EC%9B%90,https://map.kakao.com/?q=%EB%8C%80%EA%B5%AC%EC%97%B0%EC%84%B8%EC%9A%94%EC%96%91%EB%B3%91%EC%9B%90,35.8785344,128.5502538,Naver Map Search,2026-05-27 17:18:10,2등급,미인증,,0,,,0
188,대구의료원,O,X,"대구광역시 서구 평리로 157, (중리동)",053-560-7575,대구,병원/의원,20,1,0,,https://map.naver.com/v5/search/%EB%8C%80%EA%B5%AC%EC%9D%98%EB%A3%8C%EC%9B%90,https://map.kakao.com/?q=%EB%8C%80%EA%B5%AC%EC%9D%98%EB%A3%8C%EC%9B%90,35.85964,128.540587,Naver Map Search,2026-05-27 17:18:10,2등급,미인증,2026-01-01,2,"권오언,권유진","권오언,권유진",1
189,대구파티마병원,O,X,"대구광역시 동구 아양로 99, (신암동)",053-1688-7770,대구,병원/의원,62,1,0,,https://map.naver.com/v5/search/%EB%8C%80%EA%B5%AC%ED%8C%8C%ED%8B%B0%EB%A7%88%EB%B3%91%EC%9B%90,https://map.kakao.com/?q=%EB%8C%80%EA%B5%AC%ED%8C%8C%ED%8B%B0%EB%A7%88%EB%B3%91%EC%9B%90,35.8842611,128.6244071,Naver Map Search,2026-05-27 17:18:10,2등급,미인증,2026-03-24,3,"이종학,김동언,강성식","이종학,김동언,강성식",1
190,대동병원,O,O,"부산광역시 동래구 충렬대로 187, (명륜동)",051-554-1233,부산,병원/의원,27,1,0,,https://map.naver.com/v5/search/%EB%8C%80%EB%8F%99%EB%B3%91%EC%9B%90,https://map.kakao.com/?q=%EB%8C%80%EB%8F%99%EB%B3%91%EC%9B%90,35.2042538,129.0802033,Naver Map Search,2026-05-27 17:18:10,2등급,인증,2026-04-08,2,"김민지,이가희","김민지,이가희",1
191,대아의료재단한도병원,O,#N/A (),"경기도 안산시 단원구 선부광장로 103, (선부동)",031-8040-1114,경기,병원/의원,45,1,0,,https://map.naver.com/v5/search/%EB%8C%80%EC%95%84%EC%9D%98%EB%A3%8C%EC%9E%AC%EB%8B%A8%ED%95%9C%EB%8F%84%EB%B3%91%EC%9B%90,https://map.kakao.com/?q=%EB%8C%80%EC%95%84%EC%9D%98%EB%A3%8C%EC%9E%AC%EB%8B%A8%ED%95%9C%EB%8F%84%EB%B3%91%EC%9B%90,37.3340586,126.8076223,Naver Map Search,2026-05-27 17:18:10,2등급,미인증,,0,,,0
192,대자인병원,O,#N/A (),"전북특별자치도 전주시 덕진구 견훤로 390, (우아동3가)",063-240-2000,전북,병원/의원,30,1,0,,https://map.naver.com/v5/search/%EB%8C%80%EC%9E%90%EC%9D%B8%EB%B3%91%EC%9B%90,https://map.kakao.com/?q=%EB%8C%80%EC%9E%90%EC%9D%B8%EB%B3%91%EC%9B%90,35.8459659,127.1534706,Naver Map Search,2026-05-27 17:18:10,2등급,인증,2026-03-24,1,주현준,"주현준,송주흥",1
193,대전웰니스병원,O,X,"대전광역시 대덕구 동서대로1777번길 2-0, 대전웰니스병원",042-712-8500,대전,병원/의원,53,1,0,,https://map.naver.com/v5/search/%EB%8C%80%EC%A0%84%EC%9B%B0%EB%8B%88%EC%8A%A4%EB%B3%91%EC%9B%90,https://map.kakao.com/?q=%EB%8C%80%EC%A0%84%EC%9B%B0%EB%8B%88%EC%8A%A4%EB%B3%91%EC%9B%90,36.3547848,127.4434289,Naver Map Search,2026-05-27 17:18:10,2등급,미인증,2026-03-14,1,박보선,"서성은,박보선",1
194,대전한국병원,O,#N/A (),"대전광역시 동구 동서대로 1672,  (성남동)",042-606-1000,대전,병원/의원,39,1,0,,https://map.naver.com/v5/search/%EB%8C%80%EC%A0%84%ED%95%9C%EA%B5%AD%EB%B3%91%EC%9B%90,https://map.kakao.com/?q=%EB%8C%80%EC%A0%84%ED%95%9C%EA%B5%AD%EB%B3%91%EC%9B%90,36.3482008,127.4358152,Naver Map Search,2026-05-27 17:18:10,2등급,미인증,,0,,,0
195,대청병원,O,O,"대전광역시 서구 계백로 1322, (정림동)",042-1899-6075,대전,병원/의원,24,1,0,,https://map.naver.com/v5/search/%EB%8C%80%EC%B2%AD%EB%B3%91%EC%9B%90,https://map.kakao.com/?q=%EB%8C%80%EC%B2%AD%EB%B3%91%EC%9B%90,36.3082388,127.3705716,Naver Map Search,2026-05-27 17:18:10,2등급,인증,2026-02-25,1,신영태,신영태,1
196,대한내과의원,O,#N/A (),"대구광역시 중구 중앙대로 297, 1,2층 (남산동)",425-5193,대구,병원/의원,60,1,0,,https://map.naver.com/v5/search/%EB%8C%80%ED%95%9C%EB%82%B4%EA%B3%BC%EC%9D%98%EC%9B%90,https://map.kakao.com/?q=%EB%8C%80%ED%95%9C%EB%82%B4%EA%B3%BC%EC%9D%98%EC%9B%90,37.5619014,126.9955133,Naver Map Search,2026-05-27 17:18:10,2등급,미인증,2026-03-30,1,최낙원,최낙원,1
197,더맑은내과의원,O,O,"서울특별시 마포구 신촌로 162, 캠프21 오피스텔 1층 (대흥동)",02-312-7400,서울,병원/의원,129,1,0,,https://map.naver.com/v5/search/%EB%8D%94%EB%A7%91%EC%9D%80%EB%82%B4%EA%B3%BC%EC%9D%98%EC%9B%90,https://map.kakao.com/?q=%EB%8D%94%EB%A7%91%EC%9D%80%EB%82%B4%EA%B3%BC%EC%9D%98%EC%9B%90,37.5563313,126.9437333,Naver Map Search,2026-05-27 17:18:10,2등급,인증,2026-03-09,1,서윤성,서윤성,1
198,더맑은내과의원,O,O,"전북특별자치도 전주시 완산구 온고을로 28, 301,401호 (서신동)",063-902-0875,전북,병원/의원,129,1,0,,https://map.naver.com/v5/search/%EB%8D%94%EB%A7%91%EC%9D%80%EB%82%B4%EA%B3%BC%EC%9D%98%EC%9B%90,https://map.kakao.com/?q=%EB%8D%94%EB%A7%91%EC%9D%80%EB%82%B4%EA%B3%BC%EC%9D%98%EC%9B%90,37.5563313,126.9437333,Naver Map Search,2026-05-27 17:18:10,2등급,인증,2026-03-09,1,서윤성,서윤성,1
199,더맑은내과의원,O,O,"경기도 양주시 회천남로 88, M타워 6층 601,602,603,604호 (옥정동)",031-862-1310,경기,병원/의원,129,1,0,,https://map.naver.com/v5/search/%EB%8D%94%EB%A7%91%EC%9D%80%EB%82%B4%EA%B3%BC%EC%9D%98%EC%9B%90,https://map.kakao.com/?q=%EB%8D%94%EB%A7%91%EC%9D%80%EB%82%B4%EA%B3%BC%EC%9D%98%EC%9B%90,37.5563313,126.9437333,Naver Map Search,2026-05-27 17:18:10,2등급,인증,2026-03-09,1,서윤성,서윤성,1
200,더조은내과의원,O,X,"경기도 용인시 수지구 심곡로 87, 지하1층 B138~140호 (성복동, 수지제일아이조움)",031-898-2820,경기,병원/의원,27,1,0,,https://map.naver.com/v5/search/%EB%8D%94%EC%A1%B0%EC%9D%80%EB%82%B4%EA%B3%BC%EC%9D%98%EC%9B%90,https://map.kakao.com/?q=%EB%8D%94%EC%A1%B0%EC%9D%80%EB%82%B4%EA%B3%BC%EC%9D%98%EC%9B%90,37.6260625,127.0724707,Naver Map Search,2026-05-27 17:18:10,2등급,미인증,2026-02-24,0,,"김지현,유선진",0
201,더조은요양병원,O,O,"서울특별시 노원구 화랑로 323, (월계동)",02-941-7800,서울,병원/의원,31,1,0,,https://map.naver.com/v5/search/%EB%8D%94%EC%A1%B0%EC%9D%80%EC%9A%94%EC%96%91%EB%B3%91%EC%9B%90,https://map.kakao.com/?q=%EB%8D%94%EC%A1%B0%EC%9D%80%EC%9A%94%EC%96%91%EB%B3%91%EC%9B%90,37.6149081,127.0636702,Naver Map Search,2026-05-27 17:18:10,2등급,인증,2026-03-07,2,"허순미,정민선","허순미,장은희,정민선",1
202,동광주내과의원,O,#N/A (),"광주광역시 북구 각화대로 5, 4층 (각화동)",062-383-1773,광주,병원/의원,20,1,0,,https://map.naver.com/v5/search/%EB%8F%99%EA%B4%91%EC%A3%BC%EB%82%B4%EA%B3%BC%EC%9D%98%EC%9B%90,https://map.kakao.com/?q=%EB%8F%99%EA%B4%91%EC%A3%BC%EB%82%B4%EA%B3%BC%EC%9D%98%EC%9B%90,35.1822129,126.9315747,Naver Map Search,2026-05-27 17:18:10,2등급,미인증,2026-04-02,1,김기현,김기현,1
203,동국대학교의과대학경주병원,O,#N/A (),"경상북도 경주시 동대로 87,  (석장동)",054-748-9300,경북,병원/의원,33,1,0,,https://map.naver.com/v5/search/%EB%8F%99%EA%B5%AD%EB%8C%80%ED%95%99%EA%B5%90%EC%9D%98%EA%B3%BC%EB%8C%80%ED%95%99%EA%B2%BD%EC%A3%BC%EB%B3%91%EC%9B%90,https://map.kakao.com/?q=%EB%8F%99%EA%B5%AD%EB%8C%80%ED%95%99%EA%B5%90%EC%9D%98%EA%B3%BC%EB%8C%80%ED%95%99%EA%B2%BD%EC%A3%BC%EB%B3%91%EC%9B%90,35.8583076,129.1966582,Naver Map Search,2026-05-27 17:18:10,2등급,미인증,,0,,,0
204,동남권원자력의학원원자력병원,O,#N/A (),"부산광역시 기장군 장안읍 좌동길 40, (장안읍)",051-720-5114,부산,병원/의원,19,1,0,,https://map.naver.com/v5/search/%EB%8F%99%EB%82%A8%EA%B6%8C%EC%9B%90%EC%9E%90%EB%A0%A5%EC%9D%98%ED%95%99%EC%9B%90%EC%9B%90%EC%9E%90%EB%A0%A5%EB%B3%91%EC%9B%90,https://map.kakao.com/?q=%EB%8F%99%EB%82%A8%EA%B6%8C%EC%9B%90%EC%9E%90%EB%A0%A5%EC%9D%98%ED%95%99%EC%9B%90%EC%9B%90%EC%9E%90%EB%A0%A5%EB%B3%91%EC%9B%90,35.3214002,129.2435492,Naver Map Search,2026-05-27 17:18:10,2등급,미인증,2026-03-12,2,"김경민,배수야","김경민,배수야",1
205,동대문삼성내과의원,O,#N/A (),"서울특별시 중구 을지로 280-2, FIN TOWER 4~6층 (을지로7가)",02-6951-2225,서울,병원/의원,47,1,0,,https://map.naver.com/v5/search/%EB%8F%99%EB%8C%80%EB%AC%B8%EC%82%BC%EC%84%B1%EB%82%B4%EA%B3%BC%EC%9D%98%EC%9B%90,https://map.kakao.com/?q=%EB%8F%99%EB%8C%80%EB%AC%B8%EC%82%BC%EC%84%B1%EB%82%B4%EA%B3%BC%EC%9D%98%EC%9B%90,37.5653694,127.0090412,Naver Map Search,2026-05-27 17:18:10,2등급,인증,2026-01-23,2,"손승연,김도희","손승연,김도희",1
206,동산내과의원,O,#N/A (),"제주특별자치도 제주시 중앙로 337, 3,5층 (이도이동)",064-723-0865,제주,병원/의원,30,1,0,,https://map.naver.com/v5/search/%EB%8F%99%EC%82%B0%EB%82%B4%EA%B3%BC%EC%9D%98%EC%9B%90,https://map.kakao.com/?q=%EB%8F%99%EC%82%B0%EB%82%B4%EA%B3%BC%EC%9D%98%EC%9B%90,37.5618445,127.0667795,Naver Map Search,2026-05-27 17:18:10,2등급,미인증,2026-01-16,1,김지영,김지영,1
207,동아병원,O,#N/A (),"광주광역시 남구 대남대로 238,  (백운동)",062-650-2500,광주,병원/의원,26,1,0,,https://map.naver.com/v5/search/%EB%8F%99%EC%95%84%EB%B3%91%EC%9B%90,https://map.kakao.com/?q=%EB%8F%99%EC%95%84%EB%B3%91%EC%9B%90,35.1348132,126.8999505,Naver Map Search,2026-05-27 17:18:10,2등급,미인증,,0,,,0
208,동양내과의원,O,O,"대전광역시 서구 대덕대로 202, 4층 (둔산동)",042-488-7503,대전,병원/의원,16,1,0,,https://map.naver.com/v5/search/%EB%8F%99%EC%96%91%EB%82%B4%EA%B3%BC%EC%9D%98%EC%9B%90,https://map.kakao.com/?q=%EB%8F%99%EC%96%91%EB%82%B4%EA%B3%BC%EC%9D%98%EC%9B%90,36.3508361,127.378641,Naver Map Search,2026-05-27 17:18:10,2등급,인증,2026-01-12,1,김민범,김민범,1
209,동인내과의원,O,O,"서울특별시 동대문구 천호대로 307, 2층 201, 202호 (답십리동, 클래식타워)",02-2245-0875,서울,병원/의원,30,1,0,,https://map.naver.com/v5/search/%EB%8F%99%EC%9D%B8%EB%82%B4%EA%B3%BC%EC%9D%98%EC%9B%90,https://map.kakao.com/?q=%EB%8F%99%EC%9D%B8%EB%82%B4%EA%B3%BC%EC%9D%98%EC%9B%90,37.5658081,127.0547814,Naver Map Search,2026-05-27 17:18:10,2등급,인증,2026-03-20,1,강경원,강경원,1
210,두암기독병원,O,#N/A (),"광주광역시 북구 갈마로 27, (풍향동)",062-720-9100,광주,병원/의원,20,1,0,,https://map.naver.com/v5/search/%EB%91%90%EC%95%94%EA%B8%B0%EB%8F%85%EB%B3%91%EC%9B%90,https://map.kakao.com/?q=%EB%91%90%EC%95%94%EA%B8%B0%EB%8F%85%EB%B3%91%EC%9B%90,35.1614019,126.9335786,Naver Map Search,2026-05-27 17:18:10,2등급,미인증,,0,,,0
211,두암내과의원,O,X,"광주광역시 북구 밤실로 200, (두암동)",062-262-7112,광주,병원/의원,23,1,0,,https://map.naver.com/v5/search/%EB%91%90%EC%95%94%EB%82%B4%EA%B3%BC%EC%9D%98%EC%9B%90,https://map.kakao.com/?q=%EB%91%90%EC%95%94%EB%82%B4%EA%B3%BC%EC%9D%98%EC%9B%90,35.1650444,126.9334304,Naver Map Search,2026-05-27 17:18:10,2등급,미인증,2026-01-14,1,이성철,이성철,1
212,로뎀요양병원,O,X,"인천광역시 미추홀구 주안로 211, 지엔엠빌딩(1층 일부 ~ 9층) (주안동)",032-462-0321,인천,병원/의원,23,1,0,,https://map.naver.com/v5/search/%EB%A1%9C%EB%8E%80%EC%9A%94%EC%96%91%EB%B3%91%EC%9B%90,https://map.kakao.com/?q=%EB%A1%9C%EB%8E%80%EC%9A%94%EC%96%91%EB%B3%91%EC%9B%90,37.463683,126.6933827,Naver Map Search,2026-05-27 17:18:10,2등급,미인증,2026-04-13,1,문창훈,문창훈,1
213,마송김내과의원,O,X,"경기도 김포시 통진읍 마송1로84번길 53, 4층",031-987-9119,경기,병원/의원,25,1,0,,https://map.naver.com/v5/search/%EB%A7%88%EC%86%A1%EA%B9%80%EB%82%B4%EA%B3%BC%EC%9D%98%EC%9B%90,https://map.kakao.com/?q=%EB%A7%88%EC%86%A1%EA%B9%80%EB%82%B4%EA%B3%BC%EC%9D%98%EC%9B%90,37.6885886,126.5987875,Naver Map Search,2026-05-27 17:18:10,2등급,미인증,2026-01-26,2,"김진건,서정대","김진건,서정대",1
214,맑은남내과의원,O,X,"서울특별시 금천구 시흥대로 426, 3층 (독산동, 영진빌딩)",02-865-5590,서울,병원/의원,20,1,0,,https://map.naver.com/v5/search/%EB%A7%91%EC%9D%80%EB%82%A8%EB%82%B4%EA%B3%BC%EC%9D%98%EC%9B%90,https://map.kakao.com/?q=%EB%A7%91%EC%9D%80%EB%82%A8%EB%82%B4%EA%B3%BC%EC%9D%98%EC%9B%90,37.4715773,126.898787,Naver Map Search,2026-05-27 17:18:10,2등급,미인증,2026-01-09,1,남우진,남우진,1
215,맑은미소내과의원,O,X,"서울특별시 강서구 강서로 27, 화곡 심포니 타워 402, 602~4호 (화곡동)",02-2608-8275,서울,병원/의원,31,1,0,,https://map.naver.com/v5/search/%EB%A7%91%EC%9D%80%EB%AF%B8%EC%86%8C%EB%82%B4%EA%B3%BC%EC%9D%98%EC%9B%90,https://map.kakao.com/?q=%EB%A7%91%EC%9D%80%EB%AF%B8%EC%86%8C%EB%82%B4%EA%B3%BC%EC%9D%98%EC%9B%90,37.5303734,126.8471931,Naver Map Search,2026-05-27 17:18:10,2등급,미인증,2026-02-06,1,배명남,배명남,1
216,맑은샘내과의원,O,#N/A (),"경상남도 창원시 진해구 천자로413번길 5, 2층 (풍호동, 토원오피스텔상가)",055-551-0087,경남,병원/의원,32,1,0,,https://map.naver.com/v5/search/%EB%A7%91%EC%9D%80%EC%83%98%EB%82%B4%EA%B3%BC%EC%9D%98%EC%9B%90,https://map.kakao.com/?q=%EB%A7%91%EC%9D%80%EC%83%98%EB%82%B4%EA%B3%BC%EC%9D%98%EC%9B%90,35.2301295,129.1570485,Naver Map Search,2026-05-27 17:18:10,2등급,미인증,2026-03-10,1,안승재,안승재,1
217,메디인병원,O,X,"경기도 파주시 금릉역로 190, (금촌동)",031-943-1191,경기,병원/의원,26,1,0,,https://map.naver.com/v5/search/%EB%A9%94%EB%94%94%EC%9D%B8%EB%B3%91%EC%9B%90,https://map.kakao.com/?q=%EB%A9%94%EB%94%94%EC%9D%B8%EB%B3%91%EC%9B%90,37.7610733,126.766669,Naver Map Search,2026-05-27 17:18:10,2등급,미인증,2026-03-11,0,,,0
218,명일성모내과의원,O,#N/A (),"서울특별시 강동구 동남로73길 31, 3층 (명일동)",02-428-2180,서울,병원/의원,20,1,0,,https://map.naver.com/v5/search/%EB%AA%85%EC%9D%BC%EC%84%B1%EB%AA%A8%EB%82%B4%EA%B3%BC%EC%9D%98%EC%9B%90,https://map.kakao.com/?q=%EB%AA%85%EC%9D%BC%EC%84%B1%EB%AA%A8%EB%82%B4%EA%B3%BC%EC%9D%98%EC%9B%90,37.5526766,127.1544749,Naver Map Search,2026-05-27 17:18:10,2등급,미인증,2026-04-16,1,송준화,"송준화,김은하",1
219,모든내과의원,O,X,"광주광역시 남구 봉선로 12, 세븐편의점(남구사회복지협의회) 4,5층 (주월동)",062-710-3033,광주,병원/의원,15,1,0,,https://map.naver.com/v5/search/%EB%AA%A8%EB%93%A0%EB%82%B4%EA%B3%BC%EC%9D%98%EC%9B%90,https://map.kakao.com/?q=%EB%AA%A8%EB%93%A0%EB%82%B4%EA%B3%BC%EC%9D%98%EC%9B%90,35.1319849,126.9021796,Naver Map Search,2026-05-27 17:18:10,2등급,미인증,2026-02-25,0,,이승형,0
220,미듬내과의원,O,#N/A (),"전북특별자치도 군산시 미장서로 66, (수송동)",451-7584,전북,병원/의원,31,1,0,,https://map.naver.com/v5/search/%EB%AF%B8%EB%93%AC%EB%82%B4%EA%B3%BC%EC%9D%98%EC%9B%90,https://map.kakao.com/?q=%EB%AF%B8%EB%93%AC%EB%82%B4%EA%B3%BC%EC%9D%98%EC%9B%90,35.9650224,126.7220068,Naver Map Search,2026-05-27 17:18:10,2등급,미인증,,0,,,0
221,박양훈내과의원,O,#N/A (),"경상남도 김해시 가락로 27, (부원동)",055-338-1117,경남,병원/의원,26,1,0,,https://map.naver.com/v5/search/%EB%B0%95%EC%96%91%ED%9B%88%EB%82%B4%EA%B3%BC%EC%9D%98%EC%9B%90,https://map.kakao.com/?q=%EB%B0%95%EC%96%91%ED%9B%88%EB%82%B4%EA%B3%BC%EC%9D%98%EC%9B%90,35.228983,128.8819417,Naver Map Search,2026-05-27 17:18:10,2등급,인증,2026-03-21,1,박양훈,박양훈,1
222,박찬현내과의원,O,X,"서울특별시 서초구 동산로 78, (양재동)",572-5944,서울,병원/의원,16,1,0,,https://map.naver.com/v5/search/%EB%B0%95%EC%B0%AC%ED%98%84%EB%82%B4%EA%B3%BC%EC%9D%98%EC%9B%90,https://map.kakao.com/?q=%EB%B0%95%EC%B0%AC%ED%98%84%EB%82%B4%EA%B3%BC%EC%9D%98%EC%9B%90,37.4724584,127.0471769,Naver Map Search,2026-05-27 17:18:10,2등급,미인증,2026-03-04,0,,박찬현,0
223,베다내과의원,O,#N/A (),"전라남도 순천시 해룡면 신대4길 4-25, (해룡면)",061-722-3500,전남,병원/의원,29,1,0,,https://map.naver.com/v5/search/%EB%B2%A0%EB%8B%A4%EB%82%B4%EA%B3%BC%EC%9D%98%EC%9B%90,https://map.kakao.com/?q=%EB%B2%A0%EB%8B%A4%EB%82%B4%EA%B3%BC%EC%9D%98%EC%9B%90,34.9338217,127.5520698,Naver Map Search,2026-05-27 17:18:10,2등급,미인증,,0,,,0
224,베데스다복음병원,O,X,"경상남도 양산시 신기로 28, (신기동)",055-384-9901,경남,병원/의원,25,1,0,,https://map.naver.com/v5/search/%EB%B2%A0%EB%8D%B0%EC%8A%A4%EB%8B%A4%EB%B3%B5%EC%9D%8C%EB%B3%91%EC%9B%90,https://map.kakao.com/?q=%EB%B2%A0%EB%8D%B0%EC%8A%A4%EB%8B%A4%EB%B3%B5%EC%9D%8C%EB%B3%91%EC%9B%90,35.3532447,129.0435924,Naver Map Search,2026-05-27 17:18:10,2등급,미인증,2026-03-16,0,,정유인,0
225,베드로요양병원,O,#N/A (),"경기도 시흥시 평안상가5길 19, 스마일요양병원 본관동 (정왕동)",031-484-2500,경기,병원/의원,28,1,0,,https://map.naver.com/v5/search/%EB%B2%A0%EB%93%9C%EB%A1%9C%EC%9A%94%EC%96%91%EB%B3%91%EC%9B%90,https://map.kakao.com/?q=%EB%B2%A0%EB%93%9C%EB%A1%9C%EC%9A%94%EC%96%91%EB%B3%91%EC%9B%90,37.3358394,126.7479472,Naver Map Search,2026-05-27 17:18:10,2등급,미인증,,0,,,0
226,별내우리내과의원,O,#N/A (),"경기도 남양주시 순화궁로 116, 남양주 별내 노블레스 3층 307,308,309,310호 (별내동)",573-9310,경기,병원/의원,43,1,0,,https://map.naver.com/v5/search/%EB%B3%84%EB%82%B4%EC%9A%B0%EB%A6%AC%EB%82%B4%EA%B3%BC%EC%9D%98%EC%9B%90,https://map.kakao.com/?q=%EB%B3%84%EB%82%B4%EC%9A%B0%EB%A6%AC%EB%82%B4%EA%B3%BC%EC%9D%98%EC%9B%90,37.643095,127.1211132,Naver Map Search,2026-05-27 17:18:10,2등급,미인증,2026-03-23,2,"우성애,박진아","우성애,박진아",1
227,본디안내과의원,O,X,"경기도 부천시 원미구 부흥로303번길 8, 2층 (중동)",032-228-2700,경기,병원/의원,35,1,0,,https://map.naver.com/v5/search/%EB%B3%B8%EB%94%94%EC%95%88%EB%82%B4%EA%B3%BC%EC%9D%98%EC%9B%90,https://map.kakao.com/?q=%EB%B3%B8%EB%94%94%EC%95%88%EB%82%B4%EA%B3%BC%EC%9D%98%EC%9B%90,37.4951135,126.7765774,Naver Map Search,2026-05-27 17:18:10,2등급,미인증,2026-03-13,1,박진훈,박진훈,1
228,부산광역시의료원,O,#N/A (),"부산광역시 연제구 월드컵대로 359, (거제동, 1동, 5동일부)",051-507-3000,부산,병원/의원,30,1,0,,https://map.naver.com/v5/search/%EB%B6%80%EC%82%B0%EA%B4%91%EC%97%AD%EC%8B%9C%EC%9D%98%EB%A3%8C%EC%9B%90,https://map.kakao.com/?q=%EB%B6%80%EC%82%B0%EA%B4%91%EC%97%AD%EC%8B%9C%EC%9D%98%EB%A3%8C%EC%9B%90,35.1872821,129.0592351,Naver Map Search,2026-05-27 17:18:10,2등급,미인증,,0,,,0
229,부천세종병원,O,#N/A (),"경기도 부천시 소사구 호현로489번길 28, (소사본동, 세종병원)",1599-6677,경기,병원/의원,31,1,0,,https://map.naver.com/v5/search/%EB%B6%80%EC%B2%9C%EC%84%B8%EC%A2%85%EB%B3%91%EC%9B%90,https://map.kakao.com/?q=%EB%B6%80%EC%B2%9C%EC%84%B8%EC%A2%85%EB%B3%91%EC%9B%90,37.4809661,126.7913172,Naver Map Search,2026-05-27 17:18:10,2등급,미인증,,0,,,0
230,부평세림병원,O,X,"인천광역시 부평구 부평대로 175,  (청천동)",032-524-0591,인천,병원/의원,42,1,0,,https://map.naver.com/v5/search/%EB%B6%80%ED%8F%89%EC%84%B8%EB%A6%BC%EB%B3%91%EC%9B%90,https://map.kakao.com/?q=%EB%B6%80%ED%8F%89%EC%84%B8%EB%A6%BC%EB%B3%91%EC%9B%90,37.506872,126.7199858,Naver Map Search,2026-05-27 17:18:10,2등급,미인증,2026-03-02,1,전영동,전영동,1
231,분당선내과의원,O,#N/A (),"경기도 성남시 분당구 성남대로331번길 3-9, 801호, 309호 (정자동)",031-719-0875,경기,병원/의원,41,1,0,,https://map.naver.com/v5/search/%EB%B6%84%EB%8B%B9%EC%84%A0%EB%82%B4%EA%B3%BC%EC%9D%98%EC%9B%90,https://map.kakao.com/?q=%EB%B6%84%EB%8B%B9%EC%84%A0%EB%82%B4%EA%B3%BC%EC%9D%98%EC%9B%90,37.3648546,127.1077122,Naver Map Search,2026-05-27 17:18:10,2등급,미인증,,0,,,0
232,삼성맑은내과의원,O,#N/A (),"서울특별시 송파구 거마로 14, 청송빌딩 2층 (거여동)",02-400-8877,서울,병원/의원,57,1,0,,https://map.naver.com/v5/search/%EC%82%BC%EC%84%B1%EB%A7%91%EC%9D%80%EB%82%B4%EA%B3%BC%EC%9D%98%EC%9B%90,https://map.kakao.com/?q=%EC%82%BC%EC%84%B1%EB%A7%91%EC%9D%80%EB%82%B4%EA%B3%BC%EC%9D%98%EC%9B%90,37.4940305,127.1453595,Naver Map Search,2026-05-27 17:18:10,2등급,인증,2026-02-02,1,최윤미,최윤미,1
233,삼성윤내과의원,O,#N/A (),"서울특별시 강남구 광평로 295, 사이룩스오피스텔 서관 2층 206,207,208,209,210,211호 (수서동)",02-2038-7570,서울,병원/의원,34,1,0,,https://map.naver.com/v5/search/%EC%82%BC%EC%84%B1%EC%9C%A4%EB%82%B4%EA%B3%BC%EC%9D%98%EC%9B%90,https://map.kakao.com/?q=%EC%82%BC%EC%84%B1%EC%9C%A4%EB%82%B4%EA%B3%BC%EC%9D%98%EC%9B%90,37.488566,127.1041591,Naver Map Search,2026-05-27 17:18:10,2등급,인증,2026-01-14,2,"이윤하,오하영","이윤하,오하영",1
234,삼육서울병원,O,#N/A (),"서울특별시 동대문구 망우로 82, (휘경동)",02-2244-0191,서울,병원/의원,45,1,0,,https://map.naver.com/v5/search/%EC%82%BC%EC%9C%A1%EC%84%9C%EC%9A%B8%EB%B3%91%EC%9B%90,https://map.kakao.com/?q=%EC%82%BC%EC%9C%A1%EC%84%9C%EC%9A%B8%EB%B3%91%EC%9B%90,37.5879909,127.0653066,Naver Map Search,2026-05-27 17:18:10,2등급,미인증,,0,,,0
235,상계맑은내과의원,O,O,"서울특별시 노원구 동일로 1366, 삼봉빌딩 5층 (상계동)",02-930-7616,서울,병원/의원,20,1,0,,https://map.naver.com/v5/search/%EC%83%81%EA%B3%84%EB%A7%91%EC%9D%80%EB%82%B4%EA%B3%BC%EC%9D%98%EC%9B%90,https://map.kakao.com/?q=%EC%83%81%EA%B3%84%EB%A7%91%EC%9D%80%EB%82%B4%EA%B3%BC%EC%9D%98%EC%9B%90,37.6505521,127.0619917,Naver Map Search,2026-05-27 17:18:10,2등급,인증,2026-02-18,1,오현호,오현호,1
236,새서울내과영상의학과의원,O,#N/A (),"대전광역시 중구 계룡로 901, 1,2,3,별2층 (문화동)",042-255-5003,대전,병원/의원,20,1,0,,https://map.naver.com/v5/search/%EC%83%88%EC%84%9C%EC%9A%B8%EB%82%B4%EA%B3%BC%EC%98%81%EC%83%81%EC%9D%98%ED%95%99%EA%B3%BC%EC%9D%98%EC%9B%90,https://map.kakao.com/?q=%EC%83%88%EC%84%9C%EC%9A%B8%EB%82%B4%EA%B3%BC%EC%98%81%EC%83%81%EC%9D%98%ED%95%99%EA%B3%BC%EC%9D%98%EC%9B%90,36.3218449,127.4138062,Naver Map Search,2026-05-27 17:18:10,2등급,미인증,,0,,,0
237,새희망내과의원,O,#N/A (),"경기도 안양시 동안구 관평로182번길 20, 3층 (관양동, 동안프라자)",031-429-2375,경기,병원/의원,25,1,0,,https://map.naver.com/v5/search/%EC%83%88%ED%9D%AC%EB%A7%9D%EB%82%B4%EA%B3%BC%EC%9D%98%EC%9B%90,https://map.kakao.com/?q=%EC%83%88%ED%9D%AC%EB%A7%9D%EB%82%B4%EA%B3%BC%EC%9D%98%EC%9B%90,37.5737459,127.0164919,Naver Map Search,2026-05-27 17:18:10,2등급,인증,2026-01-19,1,김은정,김은정,1
238,샘내과의원,O,#N/A (),"인천광역시 연수구 인천타워대로132번길 34, 4,5층 401,402,501호 (송도동)",032-833-2021,인천,병원/의원,31,1,0,,https://map.naver.com/v5/search/%EC%83%98%EB%82%B4%EA%B3%BC%EC%9D%98%EC%9B%90,https://map.kakao.com/?q=%EC%83%98%EB%82%B4%EA%B3%BC%EC%9D%98%EC%9B%90,37.5557895,127.0109389,Naver Map Search,2026-05-27 17:18:10,2등급,미인증,2026-03-10,1,안승재,안승재,1
239,서광병원,O,O,"광주광역시 서구 금화로59번길 6,  (금호동)",062-600-8000,광주,병원/의원,22,1,0,,https://map.naver.com/v5/search/%EC%84%9C%EA%B4%91%EB%B3%91%EC%9B%90,https://map.kakao.com/?q=%EC%84%9C%EA%B4%91%EB%B3%91%EC%9B%90,35.1325949,126.8557303,Naver Map Search,2026-05-27 17:18:10,2등급,인증,2026-02-11,0,,"류혜경,박명수",0
240,서대문삼성내과의원,O,#N/A (),"서울특별시 중구 통일로 114, 바비엥-2 2층 201-1,201-2,202,203-1,203-2호 (의주로1가)",02-365-1479,서울,병원/의원,#N/A (),1,0,,https://map.naver.com/v5/search/%EC%84%9C%EB%8C%80%EB%AC%B8%EC%82%BC%EC%84%B1%EB%82%B4%EA%B3%BC%EC%9D%98%EC%9B%90,https://map.kakao.com/?q=%EC%84%9C%EB%8C%80%EB%AC%B8%EC%82%BC%EC%84%B1%EB%82%B4%EA%B3%BC%EC%9D%98%EC%9B%90,#N/A (),#N/A (),Naver Map Search,2026-05-27 17:18:10,2등급,미인증,2025-12-30,2,"채제욱,명찬아","채제욱,명찬아",1
